id|Station|Latitude|Longitude|phi|dt|refID|Phase|pmax|pmin|dtmax|dtmin|remark
47|ANTO|39.9|32.8|25.0|1.3|4|SKS|||||
48|ASH|37.9|58.3|25.0|0.8|4|SKS|||||
52|BKR|41.7|43.5|90.0|1.7|4|SKS|||||
67|GRS|39.0|46.3|100.0|1.5|4|SKS|||||
199|KIV|43.956|42.688|88.0|1.2|9|SKS|3.0||0.2||
687|SEV|44.5|33.7|125.0|0.7|41|SKS|||||
688|SIM|45.0|34.1|125.0|0.6|41|SKS|||||
690|YAL|44.4|34.2|135.0|0.4|41|SKS|||||
736|AFIF|23.931|43.04|348.0|1.5|46|SKS|2.0||0.1||
737|HALM|22.8454|44.3173|2.0|1.1|46|SKS|2.0||0.1||
738|RANI|21.3116|42.7761|2.0|1.5|46|SKS|2.0||0.2||
739|RAYN|23.522|45.5008|4.0|1.0|46|SKS|2.0||0.1||
740|RIYD|24.722|46.6643|15.0|0.5|46|SKS|6.0||0.1||
741|SODA|18.2921|42.3769|349.0|1.4|46|SKS|2.0||0.1||
742|TAIF|21.281|40.349|4.0|1.3|46|SKS|4.0||0.2||
743|UQSK|25.789|42.36|356.0|1.5|46|SKS|2.0||0.2||
1207|RAYN|23.5225|45.5032|5.0|1.31|72|SKS|1.0||0.05||
2072|ISPA|37.843|30.509|177.0|1.7|117|||13.0||0.35|
2745|DAMV|35.63|51.97|61.0|1.6|141||6.5|6.5|0.15|0.15|
2746|THKV|35.902|50.914|54.0|1.5|141||6.2|6.2|0.19|0.19|
2747|CHTH|35.908|51.126|41.0|1.8|141||10.9|10.9|0.27|0.27|
2748|AFJ|35.856|51.713|47.0|1.2|141||24.2|24.2|0.73|0.73|
2749|DMV|35.577|52.032|35.0|1.9|141||4.5|4.5|0.08|0.08|
2750|FIR|35.642|52.754|51.0|1.8|141||15.7|15.7|0.13|0.13|
2751|GZV|36.386|50.218|42.0|1.7|141||14.5|14.5|0.74|0.74|
2752|MHD|35.686|50.668|58.0|1.7|141||4.5|4.5|0.07|0.07|
2768|AGIN|38.9391|38.713|26.0|1.02|143||||||Mean calculated from 17 individual splitting measurements
2769|AHLT|38.7481|42.477|55.0|1.18|143||||||Mean calculated from 5 individual splitting measurements
2770|BNGL|38.9195|40.5966|51.0|1.2|143||||||Mean calculated from 16 individual splitting measurements
2771|BTLS|38.4311|42.1238|23.0|0.95|143||||||Mean calculated from 11 individual splitting measurements
2772|BYBT|40.2353|40.2655|49.0|1.33|143||||||Mean calculated from 20 individual splitting measurements
2773|BYKN|38.1665|41.7823|42.0|0.98|143||||||Mean calculated from 9 individual splitting measurements
2774|CMCY|39.9205|43.1968||0.0|143||||||0 individual splitting measurements
2775|DGRL|41.0568|43.3267|44.0|1.19|143||||||Mean calculated from 17 individual splitting measurements
2776|DGSU|39.1131|42.7298|48.0|1.21|143||||||Mean calculated from 11 individual splitting measurements
2777|DYBR|37.823|40.3186|31.0|1.13|143||||||Mean calculated from 26 individual splitting measurements
2778|ERGN|38.2597|39.7287|30.0|0.99|143||||||Mean calculated from 14 individual splitting measurements
2779|EZRM|40.1035|41.3636|50.0|1.7|143||||||Mean calculated from 16 individual splitting measurements
2780|HAMR|39.6136|42.9927|54.0|1.14|143||||||Mean calculated from 6 individual splitting measurements
2781|HINS|39.3489|41.6972|45.0|1.18|143||||||Mean calculated from 21 individual splitting measurements
2782|HRPT|38.7043|39.2453|38.0|1.21|143||||||Mean calculated from 31 individual splitting measurements
2783|HRSN|39.9453|42.2874|53.0|1.42|143||||||Mean calculated from 10 individual splitting measurements
2784|ILIC|39.4531|38.5686|33.0|0.77|143||||||Mean calculated from 9 individual splitting measurements
2785|IMRL|39.8787|38.1183|49.0|0.92|143||||||Mean calculated from 4 individual splitting measurements
2786|KARS|40.6222|43.0686|51.0|1.18|143||||||Mean calculated from 8 individual splitting measurements
2787|KOTK|40.2227|43.0094|52.0|1.18|143||||||Mean calculated from 7 individual splitting measurements
2788|KRLV|39.3746|40.9881|55.0|1.29|143||||||Mean calculated from 11 individual splitting measurements
2789|KTLN|37.9533|41.7052|33.0|0.85|143||||||Mean calculated from 9 individual splitting measurements
2790|KYPR|37.559|41.1692|54.0|1.14|143||||||Mean calculated from 8 individual splitting measurements
2791|MRDN|37.2897|40.7|38.0|0.95|143||||||Mean calculated from 15 individual splitting measurements
2792|MSDY|40.34616|37.7765|41.0|0.84|143||||||Mean calculated from 10 individual splitting measurements
2793|MUSH|39.87571|41.4831|57.0|1.24|143||||||Mean calculated from 7 individual splitting measurements
2794|SILN|38.1352|41.041|48.0|1.28|143||||||Mean calculated from 2 individual splitting measurements
2795|SIRN|40.2016|39.1199|49.0|1.18|143||||||Mean calculated from 8 individual splitting measurements
2796|UZML|39.7134|39.7156|38.0|0.89|143||||||Mean calculated from 11 individual splitting measurements
2979|ABKT|37.93|58.12||0.0|154||||0.0|0.0|0 NonNull 48 NULL splitting measurements
2980|ASAO|34.55|50.03||0.0|154||||0.0|0.0|0 NonNull 69 NULL splitting measurements
2981|BNDS|27.4|56.17||0.0|154||||0.0|0.0|6 NonNull 65 NULL splitting measurements
2982|CHTH|35.91|51.13||0.0|154||||0.0|0.0|0 NonNull 16 NULL splitting measurements
2983|DAMV|35.63|51.97|110.0|0.9|154||26.0|26.0|0.2|0.2|15 NonNull 30 NULL splitting measurements
2984|GHIR|28.29|52.99||0.0|154||||0.0|0.0|3 NonNull 75 NULL splitting measurements
2985|GRMI|38.81|47.89||0.0|154||||0.0|0.0|3 NonNull 31 NULL splitting measurements
2986|KRBR|29.98|56.76|137.0|0.9|154||6.0|6.0|0.3|0.3|12 NonNull 6 NULL splitting measurements
2987|MAKU|39.35|44.68||0.0|154||||0.0|0.0|1 NonNull 17 NULL splitting measurements
2988|MRVT|37.66|56.09|46.0|1.0|154||11.0|11.0|0.2|0.2|21 NonNull 3 NULL splitting measurements
2989|NASN|32.8|52.81|133.0|1.3|154||9.0|9.0|0.3|0.3|45 NonNull 9 NULL splitting measurements
2990|SHGR|32.11|48.8||0.0|154||||0.0|0.0|3 NonNull 31 NULL splitting measurements
2991|SNGE|35.09|47.35||0.0|154||||0.0|0.0|1 NonNull 35 NULL splitting measurements
2992|THKV|35.92|50.88|94.0|1.0|154||19.0|19.0|0.2|0.2|12 NonNull 32 NULL splitting measurements
2993|ZHSF|29.61|60.78|152.0|1.0|154||17.0|17.0|0.3|0.3|54 NonNull 8 NULL splitting measurements
2994|M1|29.05|51.32||0.0|154||||0.0|0.0|1 NonNull 3 NULL splitting measurements
2995|A1|29.44|51.31||0.0|154||||0.0|0.0|0 NonNull 8 NULL splitting measurements
2996|P1|29.74|52.6||0.0|154||||0.0|0.0|0 NonNull 5 NULL splitting measurements
2997|B1|29.84|52.58||0.0|154||||0.0|0.0|0 NonNull 8 NULL splitting measurements
2998|B2|30.19|52.5||0.0|154||||0.0|0.0|0 NonNull 9 NULL splitting measurements
2999|B3|30.13|53.06||0.0|154||||0.0|0.0|0 NonNull 17 NULL splitting measurements
3000|P8|30.56|53.17||0.0|154||||0.0|0.0|0 NonNull 4 NULL splitting measurements
3001|S9|31.09|53.02||0.0|154||||0.0|0.0|1 NonNull 6 NULL splitting measurements
3002|C2|32.15|53.81|136.0|1.1|154||4.0|4.0|0.3|0.3|3 NonNull 0 NULL splitting measurements
3003|D1|32.04|54.51|145.0|1.2|154||9.0|9.0|0.4|0.4|4 NonNull 0 NULL splitting measurements
3004|D3|32.41|54.09|136.0|1.4|154||4.0|4.0|0.2|0.2|6 NonNull 0 NULL splitting measurements
3005|H4|32.26|54.36|144.0|1.4|154||5.0|5.0|0.2|0.2|3 NonNull 0 NULL splitting measurements
3006|H5|32.3|54.52|132.0|1.5|154||13.0|13.0|0.3|0.3|9 NonNull 0 NULL splitting measurements
3007|D2|32.43|54.71|130.0|0.8|154||5.0|5.0|0.2|0.2|6 NonNull 1 NULL splitting measurements
3008|M7|32.6|55.2|136.0|0.6|154||8.0|8.0|0.0|0.0|3 NonNull 0 NULL splitting measurements
3009|H10|32.73|55.38|148.0|0.8|154||14.0|14.0|0.3|0.3|4 NonNull 1 NULL splitting measurements
3010|M8|32.97|55.48|147.0|1.1|154||10.0|10.0|0.3|0.3|4 NonNull 2 NULL splitting measurements
3011|E1|33.11|47.48||0.0|154||||0.0|0.0|0 NonNull 3 NULL splitting measurements
3012|E5|33.44|49.01||0.0|154||||0.0|0.0|1 NonNull 7 NULL splitting measurements
3013|E3|33.53|48.16||0.0|154||||0.0|0.0|1 NonNull 9 NULL splitting measurements
3014|Y7|33.98|49.06||0.0|154||||0.0|0.0|0 NonNull 3 NULL splitting measurements
3015|Y6|33.98|49.25||0.0|154||||0.0|0.0|0 NonNull 5 NULL splitting measurements
3016|G3|34.01|50.38||0.0|154||||0.0|0.0|0 NonNull 12 NULL splitting measurements
3017|G1|34.02|49.39||0.0|154||||0.0|0.0|1 NonNull 7 NULL splitting measurements
3018|Z8|34.24|50.9|128.0|0.8|154||8.0|8.0|0.2|0.2|2 NonNull 2 NULL splitting measurements
3019|Y1|34.37|50.38||0.0|154||||0.0|0.0|0 NonNull 6 NULL splitting measurements
3020|Y2|34.4|49.95||0.0|154||||0.0|0.0|0 NonNull 5 NULL splitting measurements
3021|Z4|34.51|50.32||0.0|154||||0.0|0.0|0 NonNull 7 NULL splitting measurements
3022|G2|34.55|50.03||0.0|154||||0.0|0.0|0 NonNull 6 NULL splitting measurements
3023|Z6|34.94|50.88|129.0|0.6|154||8.0|8.0|0.0|0.0|2 NonNull 1 NULL splitting measurements
3024|Z7|35.1|50.98|123.0|0.9|154||7.0|7.0|0.2|0.2|6 NonNull 2 NULL splitting measurements
3025|Z9|35.25|51.33|133.0|1.1|154||8.0|8.0|0.3|0.3|3 NonNull 1 NULL splitting measurements
3026|J1|35.91|51.13||0.0|154||||0.0|0.0|0 NonNull 4 NULL splitting measurements
3027|N7|36.21|51.83||0.0|154||||0.0|0.0|0 NonNull 3 NULL splitting measurements
3028|T3|36.33|52.36||0.0|154||||0.0|0.0|0 NonNull 3 NULL splitting measurements
3029|T1|36.33|52.13||0.0|154||||0.0|0.0|0 NonNull 3 NULL splitting measurements
3030|N1|36.45|51.91||0.0|154||||0.0|0.0|0 NonNull 4 NULL splitting measurements
3031|BAH|36.05|59.21||0.0|154||||0.0|0.0|0 NonNull 11 NULL splitting measurements
3032|CHA|33.63|56.47||0.0|154||||0.0|0.0|0 NonNull 36 NULL splitting measurements
3033|ESF|35.58|58.81||0.0|154||||0.0|0.0|0 NonNull 16 NULL splitting measurements
3034|GAR|35.36|56.87|49.0|1.0|154||9.0|9.0|0.3|0.3|28 NonNull 5 NULL splitting measurements
3035|GOS|35.75|58.92||0.0|154||||0.0|0.0|0 NonNull 7 NULL splitting measurements
3036|HAM|36.93|59.77||0.0|154||||0.0|0.0|0 NonNull 18 NULL splitting measurements
3037|ISG|36.49|60.76||0.0|154||||0.0|0.0|0 NonNull 30 NULL splitting measurements
3038|JAN|32.79|55.68|133.0|0.7|154||3.0|3.0|0.2|0.2|3 NonNull 6 NULL splitting measurements
3039|KAM|35.29|58.64||0.0|154||||0.0|0.0|1 NonNull 20 NULL splitting measurements
3040|KAR|36.66|59.66||0.0|154||||0.0|0.0|5 NonNull 46 NULL splitting measurements
3041|KBD|36.31|59.88||0.0|154||||0.0|0.0|1 NonNull 8 NULL splitting measurements
3042|KTH|35.72|59.03||0.0|154||||0.0|0.0|0 NonNull 20 NULL splitting measurements
3043|NIK|32.46|54.6|135.0|0.9|154||3.0|3.0|0.2|0.2|8 NonNull 1 NULL splitting measurements
3044|SAL|34.16|56.51||0.0|154||||0.0|0.0|2 NonNull 22 NULL splitting measurements
3045|SEN|34.42|58.02|54.0|0.8|154||8.0|8.0|0.1|0.1|11 NonNull 5 NULL splitting measurements
3046|SOG|36.35|57.31|48.0|1.2|154||8.0|8.0|0.3|0.3|30 NonNull 1 NULL splitting measurements
3047|ZOW|36.74|59.92||0.0|154||||0.0|0.0|0 NonNull 6 NULL splitting measurements
3048|DTA|39.08|55.17|48.0|1.0|154||6.0|6.0|0.2|0.2|5 NonNull 1 NULL splitting measurements
3049|KAR|38.44|56.27|50.0|0.8|154||8.0|8.0|0.2|0.2|5 NonNull 0 NULL splitting measurements
3050|KAT|37.67|54.78|55.0|0.9|154||10.0|10.0|0.1|0.1|6 NonNull 1 NULL splitting measurements
3051|KRV|40.01|52.96||0.0|154||||0.0|0.0|1 NonNull 14 NULL splitting measurements
3052|LNK|38.71|48.78|171.0|1.3|154||8.0|8.0|0.3|0.3|5 NonNull 3 NULL splitting measurements
3053|NBD|39.51|54.39|39.0|0.8|154||4.0|4.0|0.2|0.2|3 NonNull 2 NULL splitting measurements
4296|ALIC|40.978|33.487|43.22|1.37|166||8.62|8.62|0.25|0.25|Mean calculated from 	16	Good and 	11	 Fair measurements
4297|ALIN|41.061|32.879|34.81|1.0|166||15.98|15.98|0.34|0.34|Mean calculated from	10	Good and 	5	Fair measurements
4298|ALOR|41.301|32.87|36.14|1.42|166||10.93|10.93|0.31|0.31|Mean calculated from	14	Good and 	12	Fair measurements
4299|ANTO|39.868|32.793|44.33|0.94|166||11.29|11.29|0.22|0.22|Mean calculated from	29	Good and 	15	Fair measurements
4300|ARSL|40.955|35.887|44.97|0.64|166||14.31|14.31|0.16|0.16|Mean calculated from	8	Good and 	7	Fair measurements
4301|BAGB|40.278|36.41|38.98|0.64|166||22.37|22.37|0.26|0.26|Mean calculated from	5	Good and 	4	Fair measurements
4302|BEDI|41.121|33.506|47.55|1.14|166||7.26|7.26|0.18|0.18|Mean calculated from	20	Good and 	8	Fair measurements
4303|BEKI|41.315|34.263|41.87|0.96|166||14.08|14.08|0.26|0.26|Mean calculated from 	9	Good and 	5	Fair measurements
4304|BOKE|40.552|36.211|45.46|0.7|166||19.94|19.94|0.28|0.28|Mean calculated from	3	Good and 	4	 Fair measurements
4305|CAKM|40.015|37.367|45.07|0.94|166||10.68|10.68|0.2|0.2|Mean calculated from	21	Good and 	13	Fair measurements
4306|CALT|41.328|35.125|36.54|0.58|166||16.19|16.19|0.15|0.15|Mean calculated from	3	Good and 	2	Fair measurements
4307|CAYA|40.373|34.269|46.07|0.86|166||14.67|14.67|0.27|0.27|Mean calculated from	10	Good and 	2	Fair measurements
4308|CRLU|40.064|34.357|44.71|0.82|166||11.61|11.61|0.17|0.17|Mean calculated from	12	Good and 	7	Fair measurements
4309|CUKU|40.604|33.441|37.44|1.25|166||10.82|10.82|0.31|0.31|Mean calculated from	15	Good and 	22	Fair measurements
4310|DERE|41.477|35.064|39.2|0.73|166||15.16|15.16|0.2|0.2|Mean calculated from 	3	Good and 	1	Fair measurements
4311|DOGL|40.391|35.284|51.43|0.82|166||9.82|9.82|0.16|0.16|Mean calculated from	11	Good and 	10	Fair measurements
4312|DUMA|40.918|35.14|51.62|0.69|166||12.61|12.61|0.21|0.21|Mean calculated from	6	Good and 	4	 Fair measurements
4313|EKIN|41.147|35.787||0.0|166||||||Mean calculated from	0	Good and 	0	Fair measurements
4314|GOCE|39.743|34.348|45.07|0.68|166||21.96|21.96|0.3|0.3|Mean calculated from	7	Good and 	5	Fair measurements
4315|HASA|41.469|33.565|35.83|0.94|166||15.49|15.49|0.28|0.28|Mean calculated from	7	Good and 	9	Fair measurements
4316|INCE|40.581|32.906|37.77|1.31|166||9.3|9.3|0.27|0.27|Mean calculated from	4	Good and 	21	Fair measurements
4317|INSU|39.842|35.366|58.17|0.8|166||17.65|17.65|0.24|0.24|Mean calculated from 	6	Good and 	3	Fair measurements
4318|ISKE|40.764|37.067|48.82|0.88|166||12.7|12.7|0.23|0.23|Mean calculated from	10	Good and 	6	Fair measurements
4319|KARA|40.688|35.245|51.95|0.7|166||11.76|11.76|0.18|0.18|Mean calculated from	12	Good and 	13	Fair measurements
4320|KARG|40.291|33.552|21.4|1.1|166||8.1|8.1|0.25|0.25|Mean calculated from	1	Good and 	0	 Fair measurements
4321|KAVA|40.28|32.878|42.2|1.13|166||10.11|10.11|0.23|0.23|Mean calculated from	9	Good and 	6	Fair measurements
4322|KGAC|40.941|34.323|38.92|0.93|166||15.88|15.88|0.32|0.32|Mean calculated from	6	Good and 	7	Fair measurements
4323|KIYI|40.131|35.316|54.54|0.39|166||23.12|23.12|0.16|0.16|Mean calculated from	4	Good and 	3	Fair measurements
4324|KIZIK|40.048|36.536|37.56|0.54|166||14.9|14.9|0.14|0.14|Mean calculated from 	4	Good and 	3	Fair measurements
4325|KUYL|41.59|34.332|45.6|0.88|166||13.35|13.35|0.22|0.22|Mean calculated from	6	Good and 	4	Fair measurements
4326|KUZA|40.441|36.248|42.68|0.83|166||16.82|16.82|0.29|0.29|Mean calculated from	19	Good and 	10	Fair measurements
4327|KUZO|40.904|32.861|48.35|1.63|166||7.16|7.16|0.27|0.27|Mean calculated from	22	Good and 	4	Fair measurements
4328|OGUR|41.109|35.165||0.0|166||||||Mean calculated from	0	Good and 	0	 Fair measurements
4329|PANC|40.647|34.301|35.39|0.95|166||11.33|11.33|0.21|0.21|Mean calculated from	6	Good and 	4	Fair measurements
4330|PELI|41.113|34.299|46.27|0.96|166||11.26|11.26|0.22|0.22|Mean calculated from	19	Good and 	16	Fair measurements
4331|SEYH|40.856|32.9|48.22|1.68|166||7.28|7.28|0.26|0.26|Mean calculated from 	19	Good and 	7	Fair measurements
4332|SYUN|40.838|33.529|39.52|1.36|166||7.35|7.35|0.2|0.2|Mean calculated from	23	Good and 	7	Fair measurements
4333|TEPE|41.369|35.743|36.95|0.88|166||18.7|18.7|0.3|0.3|Mean calculated from	2	Good and 	2	Fair measurements
4334|YESI|40.405|37.229|45.06|0.64|166||17.91|17.91|0.22|0.22|Mean calculated from	13	Good and 	8	Fair measurements
4335|YIKI|40.748|35.954|58.27|0.77|166||14.31|14.31|0.27|0.27|Mean calculated from	6	Good and 	11	Fair measurements
4922|AFFS|23.927|43.001|353.2|1.466|181||14.02|14.02|0.44|0.44|
4923|AFIF|23.931|43.04|347.0|1.378|181||10.28|10.28|0.3|0.3|
4924|ALWS|29.31|35.065|2.89|1.522|181||9.01|9.01|0.4|0.4|
4925|ARSS|25.881|43.237|8.33|1.124|181||13.88|13.88|0.33|0.33|
4926|AYUS|28.189|35.269|2.75|1.518|181||15.16|15.16|0.46|0.46|
4927|BDAS|28.432|35.101|1.91|1.702|181||10.02|10.02|0.34|0.34|
4928|BLJS|19.881|41.599|356.8|1.01|181||22.25|22.25|0.31|0.31|
4929|DJNS|17.707|43.543|350.57|1.514|181||8.77|8.77|0.71|0.71|
4930|HALM|22.845|44.32|358.62|0.966|181||14.54|14.54|0.33|0.33|
4931|HAQS|29.055|34.93|10.57|1.608|181||11.57|11.57|0.38|0.38|
4932|HASS|25.19|49.694|352.0|1.266|181||15.64|15.64|0.46|0.46|
4933|HILS|27.384|41.792|343.0|1.162|181||11.76|11.76|0.31|0.31|
4934|HIT|32.475|38.402|6.5|1.512|181||10.84|10.84|0.49|0.49|
4935|JMOS|29.169|35.109|3.07|1.606|181||7.12|7.12|0.37|0.37|
4936|KBRS|25.789|39.262|356.57|1.358|181||14.96|14.96|0.38|0.38|
4937|LTHS|20.275|40.411|351.14|1.228|181||15.32|15.32|0.33|0.33|
4938|NAMS|19.171|42.208|356.88|1.346|181||14.34|14.34|0.23|0.23|
4939|QURS|31.386|37.324|354.0|1.314|181||13.65|13.65|0.52|0.52|
4940|RANI|21.312|42.78|6.73|1.664|181||13.51|13.51|0.4|0.4|
4941|RAYN|23.522|45.5|6.26|1.164|181||12.98|12.98|0.36|0.36|
4942|RIYD|24.722|46.64|4.0|1.414|181||32.76|32.76|0.67|0.67|
4943|RUW|29.743|35.841|0.67|1.3|181||9.23|9.23|0.05|0.05|
4944|SODA|18.292|42.38|352.86|1.51|181||10.43|10.43|0.29|0.29|
4945|TAIF|21.281|40.35|8.67|1.208|181||9.35|9.35|0.2|0.2|
4946|TATS|19.541|43.478|357.33|1.538|181||10.2|10.2|0.44|0.44|
4947|TAYS|28.551|34.872|7.47|1.856|181||7.19|7.19|0.31|0.31|
4948|TBKS|28.225|36.549|346.75|1.212|181||15.15|15.15|0.45|0.45|
4949|UQSK|25.789|42.36|358.0|1.456|181||10.58|10.58|0.34|0.34|
4950|YNBS|24.34|37.992|355.71|1.464|181||12.88|12.88|0.13|0.13|
4989|IB09|31.23|35.4|5.0|1.5|183||8.0|8.0|0.24|0.24|Mean calculated from 10 individual splitting measurements
4990|IB11|31.2|35.42|9.0|1.34|183||4.0|4.0|0.22|0.22|Mean calculated from 7 individual splitting measurements
4991|IB13|31.17|35.44|9.0|1.12|183||6.0|6.0|0.12|0.12|Mean calculated from 6 individual splitting measurements
4992|IB15|31.14|35.46|3.0|1.09|183||5.0|5.0|0.18|0.18|Mean calculated from 7 individual splitting measurements
4993|IB17|31.1|35.45|6.0|1.16|183||11.0|11.0|0.19|0.19|Mean calculated from 8 individual splitting measurements
4994|IB19|31.07|35.44|2.0|1.33|183||6.0|6.0|0.23|0.23|Mean calculated from 5 individual splitting measurements
4995|IB21|31.02|35.42|352.0|1.0|183||||0.0|0.0|1 individual splitting measurement
4996|IB22|31.06|35.36|1.0|1.9|183||6.0|6.0|0.0|0.0|Mean calculated from 2 individual splitting measurements
4997|IB25|31.13|35.36|355.0|2.25|183||||0.0|0.0|1 individual splitting measurements
4998|IB31|31.32|35.35|0.0|1.78|183||16.0|16.0|0.5|0.5|Mean calculated from 11 individual splitting measurements
4999|IB36|30.93|35.39|4.0|1.08|183||9.0|9.0|0.08|0.08|Mean calculated from 3 individual splitting measurements
5000|IB38|31.45|35.38|1.0|1.52|183||8.0|8.0|0.25|0.25|Mean calculated from 5 individual splitting measurements
5001|IB44|31.75|35.46|3.0|1.56|183||5.0|5.0|0.31|0.31|Mean calculated from 3 individual splitting measurements
5002|IS01|31.28|35.13|1.0|1.3|183||1.0|1.0|0.21|0.21|Mean calculated from 2 individual splitting measurements
5003|IS02|31.26|35.23|1.0|1.27|183||4.0|4.0|0.21|0.21|Mean calculated from 7 individual splitting measurements
5004|IS10|31.22|35.41|6.0|1.2|183||7.0|7.0|0.1|0.1|Mean calculated from 4 individual splitting measurements
5005|IS12|31.19|35.43|2.0|1.3|183||1.0|1.0|0.21|0.21|Mean calculated from 2 individual splitting measurements
5006|IS14|31.15|35.45|21.0|1.23|183||4.0|4.0|0.25|0.25|Mean calculated from 2 individual splitting measurements
5007|IS16|31.12|35.46|9.0|1.14|183||8.0|8.0|0.15|0.15|Mean calculated from 6 individual splitting measurements
5008|IS20|31.05|35.43|352.0|1.46|183||||0.0|0.0|1 individual splitting measurement
5009|IS26|31.15|35.33|358.0|2.36|183||||0.0|0.0|1 individual splitting measurement
5010|IS27|31.15|35.28|355.0|1.94|183||4.0|4.0|0.04|0.04|Mean calculated from 2 individual splitting measurements
5011|IS32|31.35|35.35|358.0|1.93|183||2.0|2.0|0.25|0.25|Mean calculated from 2 individual splitting measurements
5012|IS34|31.07|35.33|353.0|1.85|183||5.0|5.0|0.3|0.3|Mean calculated from 4 individual splitting measurements
5013|IS37|31.42|35.38|4.0|1.81|183||7.0|7.0|0.14|0.14|Mean calculated from 5 individual splitting measurements
5014|IS41|30.77|35.29|9.0|1.5|183||5.0|5.0|0.28|0.28|Mean calculated from 2 individual splitting measurements
5015|IS42|31.57|35.4|10.0|1.44|183||||0.0|0.0|1 individual splitting measurement
5016|IS43|31.68|35.44|3.0|1.61|183||2.0|2.0|0.21|0.21|Mean calculated from 3 individual splitting measurements
5017|JB01|31.24|35.48|8.0|1.18|183||7.0|7.0|0.14|0.14|Mean calculated from 6 individual splitting measurements
5018|JB02|31.25|35.47|7.0|1.1|183||||0.0|0.0|1 individual splitting measurement
5019|JB04|31.25|35.43|8.0|1.22|183||9.0|9.0|0.13|0.13|Mean calculated from 7 individual splitting measurements
5020|JB07|31.29|35.48|10.0|1.27|183||4.0|4.0|0.25|0.25|Mean calculated from 2 individual splitting measurements
5021|JB10|31.34|35.49|12.0|1.37|183||7.0|7.0|0.24|0.24|Mean calculated from 6 individual splitting measurements
5022|JB12|31.37|35.5|11.0|1.38|183||10.0|10.0|0.38|0.38|Mean calculated from 4 individual splitting measurements
5023|JB15|31.25|35.54|5.0|1.74|183||8.0|8.0|0.14|0.14|Mean calculated from 10 individual splitting measurements
5024|JB18|31.25|35.62|6.0|1.76|183||5.0|5.0|0.29|0.29|Mean calculated from 7 individual splitting measurements
5025|JB19|31.23|35.65|7.0|1.73|183||5.0|5.0|0.26|0.26|Mean calculated from 8 individual splitting measurements
5026|JB21|31.2|35.67|5.0|1.42|183||4.0|4.0|0.16|0.16|Mean calculated from 8 individual splitting measurements
5027|JB29|31.3|35.57|359.0|2.05|183||||0.0|0.0|1 individual splitting measurement
5028|JB37|31.39|35.67|7.0|1.62|183||5.0|5.0|0.34|0.34|Mean calculated from 13 individual splitting measurements
5029|JB39|31.19|35.61|3.0|1.75|183||5.0|5.0|0.3|0.3|Mean calculated from 13 individual splitting measurements
5030|JB41|31.27|35.54|5.0|1.83|183||6.0|6.0|0.32|0.32|Mean calculated from 5 individual splitting measurements
5031|JB42|31.33|35.5|5.0|1.56|183||5.0|5.0|0.28|0.28|Mean calculated from 2 individual splitting measurements
5032|JS05|31.24|35.4|359.0|1.18|183||5.0|5.0|0.22|0.22|Mean calculated from 4 individual splitting measurements
5033|JS06|31.28|35.47|4.0|1.12|183||6.0|6.0|0.06|0.06|Mean calculated from 3 individual splitting measurements
5034|JS08|31.31|35.49|1.0|1.3|183||4.0|4.0|0.2|0.2|Mean calculated from 3 individual splitting measurements
5035|JS09|31.32|35.49|9.0|1.27|183||12.0|12.0|0.2|0.2|Mean calculated from 3 individual splitting measurements
5036|JS11|31.35|35.51|15.0|1.2|183||||0.0|0.0|1 individual splitting measurement
5037|JS13|31.23|35.5|8.0|1.43|183||10.0|10.0|0.14|0.14|Mean calculated from 3 individual splitting measurements
5038|JS14|31.24|35.52|1.0|1.8|183||5.0|5.0|0.06|0.06|Mean calculated from 3 individual splitting measurements
5039|JS17|31.25|35.6|358.0|1.95|183||||0.0|0.0|1 individual splitting measurement
5040|JS20|31.21|35.66|9.0|1.77|183||4.0|4.0|0.2|0.2|Mean calculated from 3 individual splitting measurements
5041|JS22|31.19|35.69|4.0|1.43|183||5.0|5.0|0.24|0.24|Mean calculated from 6 individual splitting measurements
5042|JS23|31.22|35.67|7.0|1.65|183||3.0|3.0|0.21|0.21|Mean calculated from 2 individual splitting measurements
5043|JS24|31.18|35.7|5.0|1.27|183||10.0|10.0|0.04|0.04|Mean calculated from 2 individual splitting measurements
5044|JS26|31.17|35.54|1.0|1.98|183||5.0|5.0|0.3|0.3|Mean calculated from 4 individual splitting measurements
5045|JS27|31.19|35.54|359.0|1.81|183||6.0|6.0|0.16|0.16|Mean calculated from 2 individual splitting measurements
5046|JS28|31.3|35.54|3.0|1.8|183||6.0|6.0|0.05|0.05|Mean calculated from 3 individual splitting measurements
5047|JS31|31.33|35.58|0.0|2.05|183||5.0|5.0|0.22|0.22|Mean calculated from 5 individual splitting measurements
5048|JS33|31.33|35.64|6.0|1.63|183||5.0|5.0|0.33|0.33|Mean calculated from 5 individual splitting measurements
5049|JS35|31.38|35.7|5.0|1.61|183||3.0|3.0|0.21|0.21|Mean calculated from 9 individual splitting measurements
5050|JS40|31.12|35.63|1.0|1.6|183||||0.0|0.0|1 individual splitting measurement
5824|AYD|16.99|53.36|316.0|0.675|195||3.75|3.75|0.0313|0.0313|6 individual splitting measurements
5825|BAN|17.69|54.44|358.0|0.8|195||1.75|1.75|0.0525|0.0525|2 individual splitting measurements
5826|DMT|17.73|55.07|41.0|0.725|195||2.75|2.75|0.0437|0.0437|3 individual splitting measurements
5827|HAD|17.22|55.19|28.0|0.575|195||4.0|4.0|0.0625|0.0625|4 individual splitting measurements
5828|HAY|17.18|53.34|328.0|0.775|195||2.35|2.35|0.0375|0.0375|9 individual splitting measurements
5829|MDY|17.46|53.36|325.0|0.5|195||3.75|3.75|0.0125|0.0125|6 individual splitting measurements
5830|NNM|17.36|54.25|21.0|0.375|195||4.0|4.0|0.05|0.05|7 individual splitting measurements
5831|RAH|17.06|53.81|292.0|0.875|195||2.25|2.25|0.1063|0.1063|3 individual splitting measurements
5832|SAH|17.11|54.68|34.0|0.325|195||17.5|17.5|0.1188|0.1188|4 individual splitting measurements
5833|SOO|17.08|54.88|62.0|0.4|195||9.0|9.0|0.0375|0.0375|6 individual splitting measurements
5834|TQH|17.06|54.43|46.0|0.15|195||15.2|15.2|0.0375|0.0375|4 individual splitting measurements
5835|S01|17.03|54.11|284.0|0.925|195||0.92|0.92|0.0688|0.0688|3 individual splitting measurements
5836|S02|17.13|54.0|296.0|0.475|195||3.5|3.5|0.1188|0.1188|7 individual splitting measurements
5837|S03|17.25|54.08|86.0|0.75|195||4.0|4.0|0.0938|0.0938|5 individual splitting measurements
5838|S04|17.44|54.04|49.0|0.5|195||6.26|6.26|0.075|0.075|6 individual splitting measurements
5839|S04|17.44|54.04|333.0|0.625|195||15.7|15.7|0.2188|0.2188|1 individual splitting measurement
5840|S05|17.35|53.97|15.0|1.05|195||1.25|1.25|0.0113|0.0113|2 individual splitting measurements
5841|S06|17.62|54.05|333.0|0.65|195||4.75|4.75|0.0313|0.0313|1 individual splitting measurement
5842|S09|16.99|54.7|26.0|0.75|195||2.0|2.0|0.0813|0.0813|8 individual splitting measurements
5843|S10|17.5|54.2|308.0|0.825|195||3.5|3.5|0.1688|0.1688|4 individual splitting measurements
5844|S11|16.82|53.47|335.0|0.6|195||6.26|6.26|0.0525|0.0525|8 individual splitting measurements
8757|AFSR|39.447|33.071|39.0|1.1|216||10.0|10.0|0.2|0.2|mean splitting calculated from 39 individual splitting measurements, 20 being of good or fair quality
8760|ALT|39.0552|30.1103|23.0|1.3|216||18.0|18.0|0.5|0.5|mean splitting calculated from 65 individual splitting measurements, 24 being of good or fair quality
8761|ANTB|36.8998|30.6538|330.0|1.5|216||11.0|11.0|0.4|0.4|mean splitting calculated from 70 individual splitting measurements, 20 being of good or fair quality
8762|ANTO|39.8689|32.7936|45.0|1.1|216||14.0|14.0|0.2|0.2|mean splitting calculated from 33 individual splitting measurements, 15 being of good or fair quality
8768|BAYT|40.3935|40.141|54.0|1.4|216||9.0|9.0|0.4|0.4|mean splitting calculated from 28 individual splitting measurements, 17 being of good or fair quality
8769|BCA|41.445|41.6223|44.0|1.7|216||11.0|11.0|0.3|0.3|mean splitting calculated from 33 individual splitting measurements, 11 being of good or fair quality
8770|BEL|37.9708|31.2642|27.0|1.0|216||20.0|20.0|0.3|0.3|mean splitting calculated from 80 individual splitting measurements, 25 being of good or fair quality
8772|BNGB|38.852|35.847|46.0|1.1|216||10.0|10.0|0.4|0.4|mean splitting calculated from 23 individual splitting measurements, 9 being of good or fair quality
8773|BNN|38.8522|35.8472|40.0|1.5|216||14.0|14.0|0.6|0.6|mean splitting calculated from 40 individual splitting measurements, 7 being of good or fair quality
8775|CANT|40.6062|33.6197|32.0|1.1|216||12.0|12.0|0.4|0.4|mean splitting calculated from 67 individual splitting measurements, 27 being of good or fair quality
8777|CEYT|37.0107|35.7478|18.0|1.6|216||14.0|14.0|0.4|0.4|mean splitting calculated from 47 individual splitting measurements, 10 being of good or fair quality
8779|CORM|40.1785|34.6302|50.0|1.0|216||17.0|17.0|0.4|0.4|mean splitting calculated from 69 individual splitting measurements, 28 being of good or fair quality
8781|CSS|34.9611|33.331|35.0|1.4|216||17.0|17.0|0.7|0.7|mean splitting calculated from 106 individual splitting measurements, 34 being of good or fair quality
8784|DARE|38.5712|37.4832|16.0|1.5|216||20.0|20.0|0.7|0.7|mean splitting calculated from 30 individual splitting measurements, 6 being of good or fair quality
8786|DIGO|40.4088|43.3712|43.0|1.2|216||10.0|10.0|0.2|0.2|mean splitting calculated from 6 individual splitting measurements, 4 being of good or fair quality
8787|DYBB|37.9537|40.1393|30.0|1.3|216||14.0|14.0|0.3|0.3|mean splitting calculated from 34 individual splitting measurements, 21 being of good or fair quality
8792|ERBA|40.6813|36.7547|61.0|1.4|216||7.0|7.0|0.2|0.2|mean splitting calculated from 8 individual splitting measurements, 4 being of good or fair quality
8793|EREN|35.5292|34.1742|31.0|1.0|216||24.0|24.0|0.6|0.6|mean splitting calculated from 135 individual splitting measurements, 29 being of good or fair quality
8795|ERMK|36.6417|32.9128|45.0|1.3|216||18.0|18.0|0.4|0.4|mean splitting calculated from 22 individual splitting measurements, 7 being of good or fair quality
8796|ERZN|39.587|39.722|54.0|1.2|216||8.0|8.0|0.3|0.3|mean splitting calculated from 21 individual splitting measurements, 14 being of good or fair quality
8801|GAZ|37.1722|37.2113|20.0|1.2|216||14.0|14.0|0.5|0.5|mean splitting calculated from 47 individual splitting measurements, 14 being of good or fair quality
8804|GULT|40.4322|30.5153|29.0|1.1|216||18.0|18.0|0.4|0.4|mean splitting calculated from 111 individual splitting measurements, 53 being of good or fair quality
8805|HRFI|30.0363|35.037|12.0|1.2|216||16.0|16.0|0.4|0.4|mean splitting calculated from 13 individual splitting measurements, 7 being of good or fair quality
8806|IKL|36.2387|33.6852|23.0|1.0|216||27.0|27.0|0.3|0.3|mean splitting calculated from 104 individual splitting measurements, 22 being of good or fair quality
8808|ISP|37.8227|30.5222|359.0|1.3|216||26.0|26.0|0.5|0.5|mean splitting calculated from 97 individual splitting measurements, 24 being of good or fair quality
8809|KARA|37.2607|35.0547|31.0|1.1|216||16.0|16.0|0.4|0.4|mean splitting calculated from 61 individual splitting measurements, 12 being of good or fair quality
8810|KARS|40.6152|43.0937|58.0|1.4|216||18.0|18.0|0.6|0.6|mean splitting calculated from 31 individual splitting measurements, 4 being of good or fair quality
8814|KELT|40.1495|39.2557|59.0|1.1|216||16.0|16.0|0.4|0.4|mean splitting calculated from 10 individual splitting measurements, 6 being of good or fair quality
8815|KIV|43.9553|42.6863|35.0|1.0|216||24.0|24.0|0.4|0.4|mean splitting calculated from 16 individual splitting measurements, 5 being of good or fair quality
8816|KMRS|37.5053|36.9|13.0|2.2|216||7.0|7.0|0.5|0.5|mean splitting calculated from 55 individual splitting measurements, 5 being of good or fair quality
8817|KONT|37.9453|32.3605|20.0|1.1|216||23.0|23.0|0.6|0.6|mean splitting calculated from 78 individual splitting measurements, 28 being of good or fair quality
8818|KOZT|37.4805|35.8268|17.0|1.1|216||24.0|24.0|0.6|0.6|mean splitting calculated from 47 individual splitting measurements, 7 being of good or fair quality
8820|KRTS|36.5732|35.375|18.0|1.3|216||17.0|17.0|0.6|0.6|mean splitting calculated from 18 individual splitting measurements, 7 being of good or fair quality
8821|KTUT|40.987|39.7667|56.0|1.4|216||13.0|13.0|0.6|0.6|mean splitting calculated from 27 individual splitting measurements, 17 being of good or fair quality
8823|KVT|41.0807|36.0463|45.0|0.6|216||18.0|18.0|0.4|0.4|mean splitting calculated from 51 individual splitting measurements, 11 being of good or fair quality
8824|KZIT|30.9063|34.3972|0.0|1.3|216||16.0|16.0|0.4|0.4|mean splitting calculated from 18 individual splitting measurements, 8 being of good or fair quality
8825|LADK|38.2|32.3648|34.0|1.2|216||17.0|17.0|0.5|0.5|mean splitting calculated from 33 individual splitting measurements, 11 being of good or fair quality
8828|LOD|39.8893|32.764|41.0|1.1|216||13.0|13.0|0.3|0.3|mean splitting calculated from 83 individual splitting measurements, 41 being of good or fair quality
8830|MALT|38.3134|38.4273|23.0|1.1|216||16.0|16.0|0.4|0.4|mean splitting calculated from 51 individual splitting measurements, 13 being of good or fair quality
8831|MAN|36.7817|31.7247|338.0|0.8|216||24.0|24.0|0.6|0.6|mean splitting calculated from 55 individual splitting measurements, 6 being of good or fair quality
8833|MAZI|37.4603|40.4467|42.0|1.1|216||16.0|16.0|0.4|0.4|mean splitting calculated from 7 individual splitting measurements, 6 being of good or fair quality
8835|MDU|40.4653|31.2145|34.0|1.6|216||11.0|11.0|0.3|0.3|mean splitting calculated from 21 individual splitting measurements, 11 being of good or fair quality
8836|MERS|36.8677|35.8268|37.0|0.8|216||20.0|20.0|0.3|0.3|mean splitting calculated from 62 individual splitting measurements, 8 being of good or fair quality
8840|MMLI|32.4378|35.4217|6.0|1.8|216||6.0|6.0|0.6|0.6|mean splitting calculated from 14 individual splitting measurements, 4 being of good or fair quality
8845|PZAR|41.178|40.8988|27.0|1.6|216||15.0|15.0|0.4|0.4|mean splitting calculated from 13 individual splitting measurements, 4 being of good or fair quality
8848|SARI|38.4072|36.4182|53.0|0.7|216||11.0|11.0|0.1|0.1|mean splitting calculated from 19 individual splitting measurements, 6 being of good or fair quality
8849|SENK|40.5615|42.3507|42.0|2.0|216||8.0|8.0|0.4|0.4|mean splitting calculated from 15 individual splitting measurements, 10 being of good or fair quality
8850|SHUT|38.553|30.551|13.0|1.8|216||11.0|11.0|0.6|0.6|mean splitting calculated from 73 individual splitting measurements, 37 being of good or fair quality
8854|SPNC|40.686|30.308|34.0|1.0|216||11.0|11.0|0.3|0.3|mean splitting calculated from 31 individual splitting measurements, 16 being of good or fair quality
8855|SVRC|38.3775|39.306|43.0|1.4|216||8.0|8.0|0.3|0.3|mean splitting calculated from 21 individual splitting measurements, 5 being of good or fair quality
8856|SVRH|39.4469|31.523|30.0|1.0|216||15.0|15.0|0.5|0.5|mean splitting calculated from 50 individual splitting measurements, 17 being of good or fair quality
8857|SVSK|39.917|36.998|31.0|0.9|216||10.0|10.0|0.2|0.2|mean splitting calculated from 57 individual splitting measurements, 22 being of good or fair quality
8864|URFA|37.441|38.8213|22.0|1.3|216||18.0|18.0|0.5|0.5|mean splitting calculated from 76 individual splitting measurements, 26 being of good or fair quality
8865|YAYL|36.0343|36.107|35.0|1.3|216||27.0|27.0|0.4|0.4|mean splitting calculated from 15 individual splitting measurements, 4 being of good or fair quality
8868|AHLR|40.8867|32.7735|31.0|1.7|216||11.0|11.0|0.5|0.5|mean splitting calculated from 7 individual splitting measurements, 2 being of good or fair quality
8869|ALTB|28.74|41.09|43.0|1.1|216||5.0|5.0|0.4|0.4|mean splitting calculated from 5 individual splitting measurements, 3 being of good or fair quality
8872|BCK|37.461|30.5877|326.0|1.8|216||28.0|28.0|0.4|0.4|mean splitting calculated from 24 individual splitting measurements, 5 being of good or fair quality
8874|BLKV|40.8613|32.7517|25.0|2.1|216||9.0|9.0|0.2|0.2|mean splitting calculated from 2 individual splitting measurements, 1 being of good or fair quality
8876|BOLV|38.7138|30.9502|43.0|1.8|216||12.0|12.0|0.4|0.4|mean splitting calculated from 14 individual splitting measurements, 3 being of good or fair quality
8879|BYDR|40.8237|32.7738|67.0|1.6|216||13.0|13.0|0.9|0.9|mean splitting calculated from 3 individual splitting measurements, 3 being of good or fair quality
8880|BZK|41.96|34.0035|39.0|1.3|216||9.0|9.0|0.5|0.5|mean splitting calculated from 44 individual splitting measurements, 1 being of good or fair quality
8882|CDAG|39.6237|34.3718|67.0|1.0|216||11.0|11.0|0.0|0.0|mean splitting calculated from 6 individual splitting measurements, 2 being of good or fair quality
8884|CHBY|38.5823|32.8902|32.0|1.2|216||20.0|20.0|0.3|0.3|mean splitting calculated from 7 individual splitting measurements, 3 being of good or fair quality
8885|CLDR|39.144|43.9172|31.0|0.9|216||35.0|35.0|0.3|0.3|mean splitting calculated from 28 individual splitting measurements, 8 being of good or fair quality
8887|CMLK|40.965|32.7937|65.0|2.3|216||4.0|4.0|0.6|0.6|mean splitting calculated from 5 individual splitting measurements, 2 being of good or fair quality
8891|CUKT|37.2473|43.6077|71.0|0.9|216||18.0|18.0|0.5|0.5|mean splitting calculated from 29 individual splitting measurements, 2 being of good or fair quality
8892|DIKM|41.6497|35.2578|21.0|0.8|216||29.0|29.0|0.2|0.2|mean splitting calculated from 34 individual splitting measurements, 1 being of good or fair quality
8893|E08|39.8969|30.4047|58.0|1.2|216||11.0|11.0|0.6|0.6|mean splitting calculated from 7 individual splitting measurements, 3 being of good or fair quality
8894|E13|38.3603|30.7144|37.0|1.6|216||20.0|20.0|0.5|0.5|mean splitting calculated from 3 individual splitting measurements, 3 being of good or fair quality
8895|E17|37.3208|30.7133|338.0|1.7|216||10.0|10.0|1.1|1.1|mean splitting calculated from 8 individual splitting measurements, 3 being of good or fair quality
8896|E18|37.1631|30.6811|301.0|0.9|216||4.0|4.0|0.0|0.0|mean splitting calculated from 5 individual splitting measurements, 2 being of good or fair quality
8897|E23|36.3669|30.43|330.0|1.2|216||12.0|12.0|0.5|0.5|mean splitting calculated from 8 individual splitting measurements, 3 being of good or fair quality
8898|EPOS|41.5035|42.7279|42.0|0.8|216||||0.0|0.0|mean splitting calculated from 3 individual splitting measurements, 1 being of good or fair quality
8899|ESPY|40.9167|38.7273|12.0|1.1|216||17.0|17.0|0.6|0.6|mean splitting calculated from 7 individual splitting measurements, 3 being of good or fair quality
8902|GEVA|38.3122|43.0587|54.0|1.0|216||1.0|1.0|0.0|0.0|mean splitting calculated from 2 individual splitting measurements, 2 being of good or fair quality
8904|GNI|40.1495|44.7413|76.0|1.1|216||21.0|21.0|0.2|0.2|mean splitting calculated from 18 individual splitting measurements, 1 being of good or fair quality
8906|GURO|38.5509|42.0322|43.0|1.1|216||8.0|8.0|0.1|0.1|mean splitting calculated from 8 individual splitting measurements, 1 being of good or fair quality
8909|HAKT|37.5578|43.7072|65.0|1.9|216||6.0|6.0|0.4|0.4|mean splitting calculated from 5 individual splitting measurements, 3 being of good or fair quality
8910|HDMB|36.964|32.486|48.0|1.0|216||30.0|30.0|0.5|0.5|mean splitting calculated from 65 individual splitting measurements, 3 being of good or fair quality
8915|ILGA|41.0522|33.7165|52.0|1.6|216||8.0|8.0|0.3|0.3|mean splitting calculated from 8 individual splitting measurements, 3 being of good or fair quality
8916|ILIC|39.452|38.568|47.0|1.2|216||9.0|9.0|0.2|0.2|mean splitting calculated from 11 individual splitting measurements, 2 being of good or fair quality
8917|INL|36.1289|32.5501|32.0|0.9|216||29.0|29.0|0.4|0.4|mean splitting calculated from 77 individual splitting measurements, 27 being of good or fair quality
8919|KAMT|39.3692|33.7127|69.0|1.5|216||2.0|2.0|0.3|0.3|mean splitting calculated from 7 individual splitting measurements, 1 being of good or fair quality
8921|KDZE|41.3132|31.443|28.0|1.6|216||28.0|28.0|0.5|0.5|mean splitting calculated from 22 individual splitting measurements, 12 being of good or fair quality
8922|KEMA|39.2688|38.4932|15.0|2.2|216||7.0|7.0|0.1|0.1|mean splitting calculated from 11 individual splitting measurements, 3 being of good or fair quality
8924|KIZT|38.88|31.88|23.0|1.3|216||5.0|5.0|0.2|0.2|mean splitting calculated from 7 individual splitting measurements, 2 being of good or fair quality
8927|KRNZ|40.9093|32.7847|54.0|2.3|216||7.0|7.0|0.4|0.4|mean splitting calculated from 4 individual splitting measurements, 2 being of good or fair quality
8928|KSDI|33.192|35.659|9.0|1.5|216||||0.2|0.2|mean splitting calculated from 5 individual splitting measurements, 3 being of good or fair quality
8929|KURC|41.8456|32.743|48.0|1.1|216||8.0|8.0|0.6|0.6|mean splitting calculated from 4 individual splitting measurements, 2 being of good or fair quality
8931|LEF|35.1118|32.8433|19.0|1.6|216||31.0|31.0|1.1|1.1|mean splitting calculated from 103 individual splitting measurements, 13 being of good or fair quality
8932|LFK|35.2832|33.5337|355.0|1.2|216||43.0|43.0|0.5|0.5|mean splitting calculated from 54 individual splitting measurements, 9 being of good or fair quality
8938|PASA|40.8693|32.624|48.0|2.2|216||15.0|15.0|0.6|0.6|mean splitting calculated from 5 individual splitting measurements, 3 being of good or fair quality
8940|PTK|38.8923|39.3923|32.0|1.8|216||15.0|15.0|0.6|0.6|mean splitting calculated from 20 individual splitting measurements, 2 being of good or fair quality
8941|RSDY|40.3972|37.3273|55.0|2.1|216||24.0|24.0|0.9|0.9|mean splitting calculated from 26 individual splitting measurements, 1 being of good or fair quality
8943|SAUV|40.7402|30.3272|35.0|2.1|216||30.0|30.0|0.7|0.7|mean splitting calculated from 9 individual splitting measurements, 1 being of good or fair quality
8945|SEMD|37.3473|44.5208|277.0|0.8|216||||0.0|0.0|mean splitting calculated from 2 individual splitting measurements, 1 being of good or fair quality
8946|SERE|38.9463|33.564|34.0|1.8|216||11.0|11.0|0.6|0.6|mean splitting calculated from 9 individual splitting measurements, 3 being of good or fair quality
8947|SIRT|37.501|42.4392|39.0|1.3|216||22.0|22.0|0.6|0.6|mean splitting calculated from 7 individual splitting measurements, 2 being of good or fair quality
8951|SULT|38.1988|33.5157|25.0|1.0|216||30.0|30.0|0.5|0.5|mean splitting calculated from 49 individual splitting measurements, 6 being of good or fair quality
8952|SUTC|37.4755|30.9975|322.0|1.5|216||15.0|15.0|0.8|0.8|mean splitting calculated from 16 individual splitting measurements, 9 being of good or fair quality
8953|SVAN|38.1512|41.1985|49.0|1.1|216||22.0|22.0|0.6|0.6|mean splitting calculated from 15 individual splitting measurements, 2 being of good or fair quality
8954|TAHT|36.376|36.185|35.0|0.7|216||16.0|16.0|0.1|0.1|mean splitting calculated from 5 individual splitting measurements, 1 being of good or fair quality
8956|TKMK|40.9298|32.773|53.0|2.2|216||9.0|9.0|0.9|0.9|mean splitting calculated from 7 individual splitting measurements, 5 being of good or fair quality
8957|TOKT|40.3203|36.5448|66.0|1.3|216||9.0|9.0|0.3|0.3|mean splitting calculated from 15 individual splitting measurements, 1 being of good or fair quality
8960|VANB|38.595|43.3888|49.0|1.0|216||33.0|33.0|0.4|0.4|mean splitting calculated from 32 individual splitting measurements, 10 being of good or fair quality
8962|VRTB|39.16|41.456|34.0|1.8|216||42.0|42.0|0.6|0.6|mean splitting calculated from 15 individual splitting measurements, 9 being of good or fair quality
8970|YESY|37.78|33.74|48.0|2.5|216||5.0|5.0|0.1|0.1|mean splitting calculated from 5 individual splitting measurements, 1 being of good or fair quality
8972|BGIO|31.722|35.092|359.0|1.15|217|SKSdf|4.0|4.0|0.1|0.1|fair individual splitting measurement
8973|BGIO|31.722|35.092|1.0|1.82|217|SKSac|5.0|5.0|0.3|0.3|fair individual splitting measurement
8974|BGIO|31.722|35.092|319.0|0.46|217|SKKSac|10.0|10.0|0.25|0.25|fair individual splitting measurement
8975|BGIO|31.722|35.092|1.0|1.7|217|SKSac|4.0|4.0|0.11|0.11|good individual splitting measurement
8976|BGIO|31.722|35.092|354.0|0.81|217|SKSac|10.0|10.0|0.24|0.24|good individual splitting measurement
8977|EIL|29.6712|34.952|9.0|1.9|217|SKSac|5.0|5.0|0.24|0.24|fair individual splitting measurement
8978|EIL|29.6712|34.952|352.0|0.55|217|SKSac|16.0|16.0|0.25|0.25|fair individual splitting measurement
8979|EIL|29.6712|34.952|356.0|0.75|217|SKSac|12.0|12.0|0.25|0.25|fair individual splitting measurement
8980|EIL|29.6712|34.952|358.0|0.65|217|SKSac|12.0|12.0|0.25|0.25|good individual splitting measurement
8981|EIL|29.6712|34.952|3.0|1.41|217|SKSac|4.0|4.0|0.24|0.24|good individual splitting measurement
8982|EIL|29.6712|34.952|5.0|0.96|217|SKSac|5.0|5.0|0.26|0.26|good individual splitting measurement
8983|EIL|29.6712|34.952|355.0|0.75|217|SKSac|12.0|12.0|0.18|0.18|good individual splitting measurement
8984|EIL|29.6712|34.952|345.0|0.45|217|SKSac|5.0|5.0|0.24|0.24|good individual splitting measurement
8985|EIL|29.6712|34.952|359.0|0.81|217|SKSac|4.0|4.0|0.24|0.24|good individual splitting measurement
8986|EIL|29.6712|34.952|333.0|0.71|217|SKKSac|5.0|5.0|0.24|0.24|good individual splitting measurement
8987|EIL|29.6712|34.952|10.0|1.45|217|SKSac|9.0|9.0|0.19|0.19|good individual splitting measurement
8988|EIL|29.6712|34.952|7.0|1.25|217|SKSac|5.0|5.0|0.21|0.21|good individual splitting measurement
8989|EIL|29.6712|34.952|8.0|1.51|217|SKSac|5.0|5.0|0.26|0.26|good individual splitting measurement
8990|EIL|29.6712|34.952|358.0|0.68|217|SKSac|10.0|10.0|0.25|0.25|good individual splitting measurement
8991|EIL|29.6712|34.952|6.0|1.31|217|SKSac|5.0|5.0|0.2|0.2|good individual splitting measurement
8992|EIL|29.6712|34.952|358.0|0.75|217|SKKSac|6.0|6.0|0.24|0.24|good individual splitting measurement
8993|EIL|29.6712|34.952|354.0|0.8|217|SKSac|5.0|5.0|0.2|0.2|good individual splitting measurement
8994|HRFI|30.0364|35.037|350.0|0.56|217|SKSac|16.0|16.0|0.29|0.29|fair individual splitting measurement
8995|HRFI|30.0364|35.037|4.0|0.71|217|SKSac|4.0|4.0|0.23|0.23|fair individual splitting measurement
8996|HRFI|30.0364|35.037|359.0|0.73|217|SKSac|5.0|5.0|0.24|0.24|good individual splitting measurement
8997|HRFI|30.0364|35.037|4.0|1.5|217|SKSac|9.0|9.0|0.2|0.2|good individual splitting measurement
8998|HRFI|30.0364|35.037|356.0|0.5|217|SKSac|8.0|8.0|0.25|0.25|good individual splitting measurement
8999|HRFI|30.0364|35.037|9.0|1.28|217|SKSac|5.0|5.0|0.28|0.28|good individual splitting measurement
9000|HRFI|30.0364|35.037|1.0|1.26|217|SKSac|4.0|4.0|0.25|0.25|good individual splitting measurement
9001|HRFI|30.0364|35.037|6.0|1.4|217|SKKSac|9.0|9.0|0.29|0.29|good individual splitting measurement
9002|HRFI|30.0364|35.037|4.0|1.55|217|SKSac|4.0|4.0|0.2|0.2|good individual splitting measurement
9003|HRFI|30.0364|35.037|7.0|1.35|217|SKSac|12.0|12.0|0.23|0.23|good individual splitting measurement
9004|HRFI|30.0364|35.037|0.0|0.76|217|SKSac|11.0|11.0|0.28|0.28|good individual splitting measurement
9005|HRFI|30.0364|35.037|8.0|1.36|217|SKSac|3.0|3.0|0.2|0.2|good individual splitting measurement
9006|IB09|31.23|35.4|10.0|1.75|217|SKSac|10.0|10.0|0.27|0.27|fair individual splitting measurement
9007|IB09|31.23|35.4|11.0|1.7|217|SKSac|12.0|12.0|0.25|0.25|fair individual splitting measurement
9008|IB09|31.23|35.4|3.0|1.75|217|SKSac|3.0|3.0|0.1|0.1|fair individual splitting measurement
9009|IB09|31.23|35.4|5.0|1.35|217|PKSbc|10.0|10.0|0.23|0.23|fair individual splitting measurement
9010|IB09|31.23|35.4|3.0|1.02|217|SKKSac|10.0|10.0|0.18|0.18|fair individual splitting measurement
9011|IB09|31.23|35.4|352.0|1.75|217|SKSac|3.0|3.0|0.15|0.15|good individual splitting measurement
9012|IB09|31.23|35.4|14.0|1.48|217|PKSab|18.0|18.0|0.25|0.25|good individual splitting measurement
9013|IB09|31.23|35.4|354.0|1.3|217|SKKSac|9.0|9.0|0.25|0.25|good individual splitting measurement
9014|IB09|31.23|35.4|15.0|1.4|217|SKSac|12.0|12.0|0.25|0.25|good individual splitting measurement
9015|IB09|31.23|35.4|2.0|1.54|217|SKKSac|10.0|10.0|0.25|0.25|good individual splitting measurement
9016|IB11|31.2|35.42|5.0|1.55|217|SKSac|10.0|10.0|0.25|0.25|fair individual splitting measurement
9017|IB11|31.2|35.42|5.0|1.0|217|SKSac|12.0|12.0|0.25|0.25|good individual splitting measurement
9018|IB11|31.2|35.42|14.0|1.5|217|SKKSac|9.0|9.0|0.25|0.25|good individual splitting measurement
9019|IB11|31.2|35.42|6.0|1.3|217|SKSac|7.0|7.0|0.15|0.15|good individual splitting measurement
9020|IB11|31.2|35.42|14.0|1.46|217|SKSac|11.0|11.0|0.26|0.26|good individual splitting measurement
9021|IB11|31.2|35.42|10.0|1.5|217|SKSac|11.0|11.0|0.25|0.25|good individual splitting measurement
9022|IB11|31.2|35.42|11.0|1.1|217|SKSac|12.0|12.0|0.3|0.3|good individual splitting measurement
9023|IB13|31.17|35.44|6.0|0.95|217|SKSac|12.0|12.0|0.25|0.25|fair individual splitting measurement
9024|IB13|31.17|35.44|19.0|1.05|217|PKSbc|9.0|9.0|0.25|0.25|fair individual splitting measurement
9025|IB13|31.17|35.44|11.0|1.1|217|PKSbc|4.0|4.0|0.27|0.27|fair individual splitting measurement
9026|IB13|31.17|35.44|4.0|1.2|217|SKSac|9.0|9.0|0.25|0.25|fair individual splitting measurement
9027|IB13|31.17|35.44|12.0|1.1|217|SKSac|14.0|14.0|0.25|0.25|fair individual splitting measurement
9028|IB13|31.17|35.44|3.0|1.3|217|SKSac|5.0|5.0|0.15|0.15|good individual splitting measurement
9029|IB15|31.14|35.46|1.0|1.15|217|SKSac|12.0|12.0|0.3|0.3|fair individual splitting measurement
9030|IB15|31.14|35.46|357.0|1.45|217|SKSac|3.0|3.0|0.29|0.29|fair individual splitting measurement
9031|IB15|31.14|35.46|2.0|0.95|217|SKKSac|12.0|12.0|0.25|0.25|fair individual splitting measurement
9032|IB15|31.14|35.46|0.0|1.1|217|SKKSac|16.0|16.0|0.25|0.25|good individual splitting measurement
9033|IB15|31.14|35.46|13.0|1.02|217|PKSbc|12.0|12.0|0.26|0.26|good individual splitting measurement
9034|IB15|31.14|35.46|1.0|1.05|217|SKSac|14.0|14.0|0.25|0.25|good individual splitting measurement
9035|IB15|31.14|35.46|5.0|0.9|217|SKKSac|14.0|14.0|0.25|0.25|good individual splitting measurement
9036|IB17|31.1|35.45|22.0|1.3|217|PKSbc|4.0|4.0|0.33|0.33|fair individual splitting measurement
9037|IB17|31.1|35.45|19.0|1.3|217|SKKSac|11.0|11.0|0.25|0.25|fair individual splitting measurement
9038|IB17|31.1|35.45|354.0|0.95|217|SKSac|12.0|12.0|0.25|0.25|fair individual splitting measurement
9039|IB17|31.1|35.45|356.0|1.4|217|SKSac|5.0|5.0|0.29|0.29|good individual splitting measurement
9040|IB17|31.1|35.45|0.0|0.95|217|SKSac|16.0|16.0|0.2|0.2|good individual splitting measurement
9041|IB17|31.1|35.45|9.0|1.05|217|SKSac|17.0|17.0|0.3|0.3|good individual splitting measurement
9042|IB17|31.1|35.45|356.0|1.35|217|SKKSac|6.0|6.0|0.25|0.25|good individual splitting measurement
9043|IB17|31.1|35.45|14.0|1.0|217|SKKSac|15.0|15.0|0.28|0.28|good individual splitting measurement
9044|IB19|31.07|35.44|8.0|1.05|217|PKSbc|13.0|13.0|0.26|0.26|fair individual splitting measurement
9045|IB19|31.07|35.44|357.0|1.4|217|SKSac|13.0|13.0|0.25|0.25|good individual splitting measurement
9046|IB19|31.07|35.44|7.0|1.13|217|SKSac|6.0|6.0|0.3|0.3|good individual splitting measurement
9047|IB19|31.07|35.44|355.0|1.6|217|SKKSac|5.0|5.0|0.23|0.23|good individual splitting measurement
9048|IB19|31.07|35.44|2.0|1.45|217|SKSac|4.0|4.0|0.25|0.25|good individual splitting measurement
9049|IB21|31.02|35.42|35.0|0.22|217|SKSac|12.0|12.0|0.39|0.39|good individual splitting measurement
9050|IB21|31.02|35.42|325.0|0.26|217|SKSac|24.0|24.0|0.24|0.24|good individual splitting measurement
9051|IB21|31.02|35.42|352.0|1.0|217|SKKSac|9.0|9.0|0.15|0.15|good individual splitting measurement
9052|IB22|31.06|35.36|5.0|1.9|217|SKSac|12.0|12.0|0.25|0.25|fair individual splitting measurement
9053|IB22|31.06|35.36|356.0|1.9|217|SKSac|4.0|4.0|0.2|0.2|good individual splitting measurement
9054|IB25|31.13|35.36|355.0|2.25|217|SKSac|9.0|9.0|0.25|0.25|good individual splitting measurement
9055|IB31|31.32|35.35|7.0|1.95|217|SKSac|19.0|19.0|0.25|0.25|fair individual splitting measurement
9056|IB31|31.32|35.35|11.0|1.1|217|SKSac|11.0|11.0|0.27|0.27|fair individual splitting measurement
9057|IB31|31.32|35.35|10.0|1.95|217|PKSbc|4.0|4.0|0.35|0.35|fair individual splitting measurement
9058|IB31|31.32|35.35|9.0|2.15|217|SKKSac|||0.38|0.38|fair individual splitting measurement
9059|IB31|31.32|35.35|7.0|1.8|217|PKSbc|8.0|8.0|0.3|0.3|fair individual splitting measurement
9060|IB31|31.32|35.35|6.0|1.9|217|PKSdf|15.0|15.0|0.25|0.25|fair individual splitting measurement
9061|IB31|31.32|35.35|1.0|1.8|217|SKSac|9.0|9.0|0.25|0.25|fair individual splitting measurement
9062|IB31|31.32|35.35|355.0|2.15|217|SKSac|4.0|4.0|0.25|0.25|good individual splitting measurement
9063|IB31|31.32|35.35|40.0|0.37|217|SKKSac|9.0|9.0|0.26|0.26|good individual splitting measurement
9064|IB31|31.32|35.35|7.0|1.75|217|SKKSac|8.0|8.0|0.25|0.25|good individual splitting measurement
9065|IB31|31.32|35.35|328.0|0.33|217|SKSac|||0.24|0.24|good individual splitting measurement
9066|IB31|31.32|35.35|316.0|0.64|217|SKSac|4.0|4.0|0.24|0.24|good individual splitting measurement
9067|IB31|31.32|35.35|37.0|0.48|217|SKSac|4.0|4.0|0.31|0.31|good individual splitting measurement
9068|IB31|31.32|35.35|354.0|2.4|217|SKSac|5.0|5.0|0.24|0.24|good individual splitting measurement
9069|IB36|30.93|35.39|357.0|1.1|217|SKSac|10.0|10.0|0.25|0.25|fair individual splitting measurement
9070|IB36|30.93|35.39|14.0|1.15|217|PKSbc|12.0|12.0|0.37|0.37|good individual splitting measurement
9071|IB36|30.93|35.39|1.0|1.0|217|PKSbc|12.0|12.0|0.35|0.35|good individual splitting measurement
9072|IB38|31.45|35.38|359.0|1.2|217|SKSac|13.0|13.0|0.22|0.22|fair individual splitting measurement
9073|IB38|31.45|35.38|11.0|1.8|217|SKKSac|7.0|7.0|0.25|0.25|good individual splitting measurement
9074|IB38|31.45|35.38|350.0|1.35|217|SKSac|12.0|12.0|0.1|0.1|good individual splitting measurement
9075|IB38|31.45|35.38|4.0|1.7|217|SKSac|7.0|7.0|0.15|0.15|good individual splitting measurement
9076|IB38|31.45|35.38|3.0|1.55|217|SKKSac|||0.25|0.25|good individual splitting measurement
9077|IB44|31.75|35.46|1.0|1.75|217|SKSac|9.0|9.0|0.25|0.25|fair individual splitting measurement
9078|IB44|31.75|35.46|359.0|1.2|217|SKSac|11.0|11.0|0.25|0.25|fair individual splitting measurement
9079|IB44|31.75|35.46|8.0|1.74|217|PKSbc|17.0|17.0|0.28|0.28|good individual splitting measurement
9080|ID06|30.56|35.18|15.0|1.34|217|SKSac|22.0|22.0|0.27|0.27|fair individual splitting measurement
9081|ID06|30.56|35.18|354.0|0.48|217|SKSac|6.0|6.0|0.28|0.28|good individual splitting measurement
9082|ID07|30.79|34.77|358.0|1.18|217|SKSac|5.0|5.0|0.27|0.27|fair individual splitting measurement
9083|ID07|30.79|34.77|11.0|1.8|217|SKSac|5.0|5.0|0.26|0.26|fair individual splitting measurement
9084|ID07|30.79|34.77|4.0|1.5|217|SKSac|8.0|8.0|0.28|0.28|fair individual splitting measurement
9085|ID07|30.79|34.77|356.0|1.32|217|SKSac|29.0|29.0|0.28|0.28|fair individual splitting measurement
9086|ID07|30.79|34.77|9.0|1.55|217|SKSdf|11.0|11.0|0.29|0.29|good individual splitting measurement
9087|ID07|30.79|34.77|6.0|1.67|217|SKSac|22.0|22.0|0.27|0.27|good individual splitting measurement
9088|ID07|30.79|34.77|355.0|0.52|217|SKSac|20.0|20.0|0.37|0.37|good individual splitting measurement
9089|ID07|30.79|34.77|1.0|1.04|217|SKKSac|12.0|12.0|0.28|0.28|good individual splitting measurement
9090|ID08|30.6|34.79|359.0|1.34|217|SKSac|4.0|4.0|0.3|0.3|fair individual splitting measurement
9091|ID10|31.36|34.49|12.0|1.52|217|SKSac|8.0|8.0|0.28|0.28|good individual splitting measurement
9092|ID12|30.99|34.92|1.0|1.24|217|SKSac|5.0|5.0|0.29|0.29|fair individual splitting measurement
9093|ID21|30.33|34.95|6.0|1.18|217|SKSac|18.0|18.0|0.25|0.25|fair individual splitting measurement
9094|ID25|31.19|34.32|4.0|1.9|217|SKSac|6.0|6.0|0.28|0.28|fair individual splitting measurement
9095|ID25|31.19|34.32|353.0|0.8|217|SKSac|19.0|19.0|0.24|0.24|good individual splitting measurement
9096|ID27|30.66|35.24|4.0|2.14|217|SKSac|4.0|4.0|0.3|0.3|fair individual splitting measurement
9097|ID27|30.66|35.24|355.0|0.74|217|SKSac|15.0|15.0|0.28|0.28|good individual splitting measurement
9098|ID28|30.36|35.16|12.0|1.98|217|SKSac|7.0|7.0|0.25|0.25|fair individual splitting measurement
9099|ID28|30.36|35.16|6.0|1.61|217|SKSdf|6.0|6.0|0.3|0.3|good individual splitting measurement
9100|ID28|30.36|35.16|6.0|1.72|217|SKSac|5.0|5.0|0.28|0.28|good individual splitting measurement
9101|ID28|30.36|35.16|15.0|1.4|217|PKSbc|3.0|3.0|0.29|0.29|good individual splitting measurement
9102|ID31|30.08|35.13|359.0|1.59|217|PKSbc|5.0|5.0|0.28|0.28|fair individual splitting measurement
9103|ID31|30.08|35.13|13.0|1.41|217|SKSdf|3.0|3.0|0.3|0.3|good individual splitting measurement
9104|ID33|29.91|35.0|15.0|1.45|217|PKSbc|12.0|12.0|0.29|0.29|fair individual splitting measurement
9105|ID33|29.91|35.0|11.0|1.82|217|SKSac|6.0|6.0|0.27|0.27|fair individual splitting measurement
9106|IS01|31.28|35.13|0.0|1.45|217|SKSac|5.0|5.0|0.25|0.25|good individual splitting measurement
9107|IS01|31.28|35.13|2.0|1.15|217|SKSac|10.0|10.0|0.3|0.3|good individual splitting measurement
9108|IS02|31.26|35.23|3.0|1.2|217|SKSac|6.0|6.0|0.3|0.3|fair individual splitting measurement
9109|IS02|31.26|35.23|0.0|1.6|217|SKKSac|15.0|15.0|0.29|0.29|fair individual splitting measurement
9110|IS02|31.26|35.23|0.0|1.15|217|PKSbc|18.0|18.0|0.28|0.28|fair individual splitting measurement
9111|IS02|31.26|35.23|9.0|1.05|217|SKKSac|16.0|16.0|0.31|0.31|fair individual splitting measurement
9112|IS02|31.26|35.23|1.0|1.3|217|SKSac|13.0|13.0|0.25|0.25|fair individual splitting measurement
9113|IS02|31.26|35.23|2.0|1.5|217|SKSac|4.0|4.0|0.15|0.15|good individual splitting measurement
9114|IS02|31.26|35.23|354.0|1.11|217|PKSbc|12.0|12.0|0.18|0.18|good individual splitting measurement
9115|IS10|31.22|35.41|15.0|1.15|217|PKSbc|10.0|10.0|0.29|0.29|fair individual splitting measurement
9116|IS10|31.22|35.41|7.0|1.15|217|SKSac|12.0|12.0|0.29|0.29|fair individual splitting measurement
9117|IS10|31.22|35.41|3.0|1.15|217|SKSac|16.0|16.0|0.3|0.3|good individual splitting measurement
9118|IS10|31.22|35.41|359.0|1.35|217|SKSac|9.0|9.0|0.25|0.25|good individual splitting measurement
9119|IS12|31.19|35.43|3.0|1.15|217|SKSac|10.0|10.0|0.25|0.25|good individual splitting measurement
9120|IS12|31.19|35.43|1.0|1.45|217|SKSac|6.0|6.0|0.25|0.25|good individual splitting measurement
9121|IS14|31.15|35.45|23.0|1.4|217|PKSbc|4.0|4.0|0.22|0.22|fair individual splitting measurement
9122|IS14|31.15|35.45|18.0|1.05|217|PKSbc|9.0|9.0|0.31|0.31|fair individual splitting measurement
9123|IS16|31.12|35.46|359.0|1.25|217|SKSac|9.0|9.0|0.25|0.25|fair individual splitting measurement
9124|IS16|31.12|35.46|18.0|1.15|217|PKSbc|||0.27|0.27|fair individual splitting measurement
9125|IS16|31.12|35.46|6.0|1.33|217|SKKSac|15.0|15.0|0.23|0.23|fair individual splitting measurement
9126|IS16|31.12|35.46|17.0|1.07|217|PKSbc|||0.21|0.21|fair individual splitting measurement
9127|IS16|31.12|35.46|3.0|1.15|217|SKSac|8.0|8.0|0.25|0.25|good individual splitting measurement
9128|IS16|31.12|35.46|9.0|0.9|217|SKSac|12.0|12.0|0.25|0.25|good individual splitting measurement
9129|IS20|31.05|35.43|352.0|1.46|217|SKSac|4.0|4.0|0.23|0.23|fair individual splitting measurement
9130|IS26|31.15|35.33|358.0|2.36|217|SKSac|3.0|3.0|0.26|0.26|good individual splitting measurement
9131|IS27|31.15|35.28|353.0|1.97|217|SKKSac|||0.32|0.32|fair individual splitting measurement
9132|IS27|31.15|35.28|358.0|1.92|217|SKSac|||0.21|0.21|good individual splitting measurement
9133|IS32|31.35|35.35|357.0|2.1|217|SKSac|7.0|7.0|0.25|0.25|good individual splitting measurement
9134|IS32|31.35|35.35|0.0|1.75|217|SKSac|10.0|10.0|0.25|0.25|good individual splitting measurement
9135|IS34|31.07|35.33|355.0|2.05|217|SKKSac|4.0|4.0|0.24|0.24|fair individual splitting measurement
9136|IS34|31.07|35.33|345.0|1.5|217|SKKSac|12.0|12.0|0.38|0.38|fair individual splitting measurement
9137|IS34|31.07|35.33|357.0|1.7|217|SKSac|12.0|12.0|0.25|0.25|fair individual splitting measurement
9138|IS34|31.07|35.33|355.0|2.15|217|SKSac|3.0|3.0|0.2|0.2|good individual splitting measurement
9139|IS37|31.42|35.38|11.0|1.87|217|SKKSac|11.0|11.0|0.24|0.24|fair individual splitting measurement
9140|IS37|31.42|35.38|5.0|1.81|217|PKSbc|7.0|7.0|0.28|0.28|fair individual splitting measurement
9141|IS37|31.42|35.38|358.0|2.0|217|SKSac|6.0|6.0|0.25|0.25|fair individual splitting measurement
9142|IS37|31.42|35.38|355.0|1.65|217|SKSac|14.0|14.0|0.25|0.25|fair individual splitting measurement
9143|IS37|31.42|35.38|9.0|1.7|217|PKSbc|19.0|19.0|0.29|0.29|good individual splitting measurement
9144|IS41|30.77|35.29|5.0|1.3|217|PKSbc|13.0|13.0|0.27|0.27|fair individual splitting measurement
9145|IS41|30.77|35.29|12.0|1.7|217|PKSbc|11.0|11.0|0.23|0.23|good individual splitting measurement
9146|IS42|31.57|35.4|10.0|1.44|217|PKSbc|8.0|8.0|0.21|0.21|good individual splitting measurement
9147|IS43|31.68|35.44|4.0|1.76|217|PKSbc|17.0|17.0|0.23|0.23|good individual splitting measurement
9148|IS43|31.68|35.44|1.0|1.37|217|SKKSac|19.0|19.0|0.28|0.28|good individual splitting measurement
9149|IS43|31.68|35.44|5.0|1.7|217|SKSac|14.0|14.0|0.25|0.25|good individual splitting measurement
9150|JB01|31.24|35.48|3.0|1.3|217|SKSac|8.0|8.0|0.25|0.25|fair individual splitting measurement
9151|JB01|31.24|35.48|10.0|1.35|217|SKSac|19.0|19.0|0.25|0.25|fair individual splitting measurement
9152|JB01|31.24|35.48|18.0|1.0|217|PKSbc|4.0|4.0|0.25|0.25|fair individual splitting measurement
9153|JB01|31.24|35.48|13.0|1.05|217|SKKSac|4.0|4.0|0.37|0.37|fair individual splitting measurement
9154|JB01|31.24|35.48|358.0|1.15|217|SKKSac|4.0|4.0|0.33|0.33|good individual splitting measurement
9155|JB01|31.24|35.48|6.0|1.2|217|SKSac|12.0|12.0|0.25|0.25|good individual splitting measurement
9156|JB02|31.25|35.47|7.0|1.1|217|PKSbc|18.0|18.0|0.35|0.35|good individual splitting measurement
9157|JB04|31.25|35.43|9.0|1.35|217|SKSac|14.0|14.0|0.25|0.25|fair individual splitting measurement
9158|JB04|31.25|35.43|7.0|1.2|217|SKSac|7.0|7.0|0.25|0.25|fair individual splitting measurement
9159|JB04|31.25|35.43|21.0|1.15|217|PKSbc|4.0|4.0|0.35|0.35|fair individual splitting measurement
9160|JB04|31.25|35.43|19.0|1.2|217|SKKSac|||0.39|0.39|fair individual splitting measurement
9161|JB04|31.25|35.43|1.0|1.1|217|SKSac|12.0|12.0|0.25|0.25|fair individual splitting measurement
9162|JB04|31.25|35.43|358.0|1.1|217|SKKSac|12.0|12.0|0.25|0.25|good individual splitting measurement
9163|JB04|31.25|35.43|2.0|1.45|217|SKKSac|12.0|12.0|0.25|0.25|good individual splitting measurement
9164|JB07|31.29|35.48|7.0|1.45|217|SKKSac|13.0|13.0|0.25|0.25|fair individual splitting measurement
9165|JB07|31.29|35.48|12.0|1.1|217|SKSac|12.0|12.0|0.25|0.25|fair individual splitting measurement
9166|JB10|31.34|35.49|10.0|1.2|217|SKSac|8.0|8.0|0.25|0.25|fair individual splitting measurement
9167|JB10|31.34|35.49|19.0|1.05|217|PKSbc|||0.31|0.31|fair individual splitting measurement
9168|JB10|31.34|35.49|7.0|1.4|217|SKSac|15.0|15.0|0.25|0.25|fair individual splitting measurement
9169|JB10|31.34|35.49|8.0|1.3|217|SKSac|11.0|11.0|0.24|0.24|good individual splitting measurement
9170|JB10|31.34|35.49|23.0|1.55|217|PKSbc|7.0|7.0|0.26|0.26|good individual splitting measurement
9171|JB10|31.34|35.49|4.0|1.7|217|SKSac|8.0|8.0|0.25|0.25|good individual splitting measurement
9172|JB12|31.37|35.5|6.0|1.75|217|SKKSac|5.0|5.0|0.25|0.25|fair individual splitting measurement
9173|JB12|31.37|35.5|20.0|0.85|217|SKSac|13.0|13.0|0.25|0.25|fair individual splitting measurement
9174|JB12|31.37|35.5|18.0|1.5|217|PKSbc|12.0|12.0|0.36|0.36|fair individual splitting measurement
9175|JB12|31.37|35.5|359.0|1.4|217|SKKSac|12.0|12.0|0.25|0.25|fair individual splitting measurement
9176|JB15|31.25|35.54|353.0|1.55|217|SKSac|12.0|12.0|0.25|0.25|fair individual splitting measurement
9177|JB15|31.25|35.54|9.0|1.9|217|PKSab|11.0|11.0|0.3|0.3|fair individual splitting measurement
9178|JB15|31.25|35.54|16.0|1.85|217|SKSac|10.0|10.0|0.25|0.25|fair individual splitting measurement
9179|JB15|31.25|35.54|0.0|1.8|217|SKSac|4.0|4.0|0.2|0.2|good individual splitting measurement
9180|JB15|31.25|35.54|8.0|1.95|217|SKKSac|10.0|10.0|0.25|0.25|good individual splitting measurement
9181|JB15|31.25|35.54|12.0|1.75|217|PKSbc|18.0|18.0|0.3|0.3|good individual splitting measurement
9182|JB15|31.25|35.54|15.0|1.81|217|SKKSac|12.0|12.0|0.21|0.21|good individual splitting measurement
9183|JB15|31.25|35.54|358.0|1.65|217|SKSac|7.0|7.0|0.25|0.25|good individual splitting measurement
9184|JB15|31.25|35.54|6.0|1.62|217|SKKSac|8.0|8.0|0.31|0.31|good individual splitting measurement
9185|JB15|31.25|35.54|354.0|1.55|217|SKSac|10.0|10.0|0.3|0.3|good individual splitting measurement
9186|JB18|31.25|35.62|1.0|2.2|217|SKSac|7.0|7.0|0.25|0.25|fair individual splitting measurement
9187|JB18|31.25|35.62|12.0|1.62|217|PKSbc|11.0|11.0|0.28|0.28|fair individual splitting measurement
9188|JB18|31.25|35.62|13.0|1.25|217|SKKSac|15.0|15.0|0.28|0.28|fair individual splitting measurement
9189|JB18|31.25|35.62|9.0|1.7|217|SKSac|6.0|6.0|0.15|0.15|good individual splitting measurement
9190|JB18|31.25|35.62|7.0|1.85|217|PKSab|15.0|15.0|0.25|0.25|good individual splitting measurement
9191|JB18|31.25|35.62|359.0|1.9|217|SKSac|11.0|11.0|0.25|0.25|good individual splitting measurement
9192|JB18|31.25|35.62|4.0|1.8|217|SKKSac|16.0|16.0|0.25|0.25|good individual splitting measurement
9193|JB19|31.23|35.65|4.0|1.43|217|PKSbc|9.0|9.0|0.22|0.22|fair individual splitting measurement
9194|JB19|31.23|35.65|1.0|1.75|217|SKSac|8.0|8.0|0.25|0.25|fair individual splitting measurement
9195|JB19|31.23|35.65|4.0|1.7|217|PKSdf|17.0|17.0|0.25|0.25|fair individual splitting measurement
9196|JB19|31.23|35.65|5.0|2.05|217|SKSac|8.0|8.0|0.25|0.25|good individual splitting measurement
9197|JB19|31.23|35.65|9.0|1.5|217|SKSac|11.0|11.0|0.3|0.3|good individual splitting measurement
9198|JB19|31.23|35.65|12.0|1.88|217|PKSbc|15.0|15.0|0.27|0.27|good individual splitting measurement
9199|JB19|31.23|35.65|15.0|1.45|217|SKKSac|15.0|15.0|0.31|0.31|good individual splitting measurement
9200|JB19|31.23|35.65|4.0|2.06|217|SKSac|12.0|12.0|0.25|0.25|good individual splitting measurement
9201|JB21|31.2|35.67|5.0|1.52|217|PKSbc|12.0|12.0|0.25|0.25|fair individual splitting measurement
9202|JB21|31.2|35.67|10.0|1.31|217|SKKSac|18.0|18.0|0.25|0.25|fair individual splitting measurement
9203|JB21|31.2|35.67|4.0|1.15|217|PKSdf|17.0|17.0|0.25|0.25|fair individual splitting measurement
9204|JB21|31.2|35.67|7.0|1.5|217|SKSac|8.0|8.0|0.25|0.25|good individual splitting measurement
9205|JB21|31.2|35.67|356.0|1.65|217|SKSac|19.0|19.0|0.31|0.31|good individual splitting measurement
9206|JB21|31.2|35.67|5.0|1.39|217|PKSbc|9.0|9.0|0.23|0.23|good individual splitting measurement
9207|JB21|31.2|35.67|6.0|1.5|217|SKSac|10.0|10.0|0.24|0.24|good individual splitting measurement
9208|JB21|31.2|35.67|6.0|1.3|217|PKSdf|11.0|11.0|0.25|0.25|good individual splitting measurement
9209|JB29|31.3|35.57|359.0|2.05|217|SKSac|10.0|10.0|0.25|0.25|good individual splitting measurement
9210|JB37|31.39|35.67|13.0|1.75|217|SKSac|7.0|7.0|0.25|0.25|fair individual splitting measurement
9211|JB37|31.39|35.67|8.0|1.7|217|PKSab|19.0|19.0|0.31|0.31|fair individual splitting measurement
9212|JB37|31.39|35.67|6.0|1.7|217|SKKSac|14.0|14.0|0.28|0.28|fair individual splitting measurement
9213|JB37|31.39|35.67|2.0|1.48|217|PKSbc|9.0|9.0|0.27|0.27|fair individual splitting measurement
9214|JB37|31.39|35.67|3.0|1.3|217|SKSac|10.0|10.0|0.25|0.25|fair individual splitting measurement
9215|JB37|31.39|35.67|15.0|1.95|217|PKSdf|19.0|19.0|0.31|0.31|fair individual splitting measurement
9216|JB37|31.39|35.67|15.0|2.15|217|SKKSac|9.0|9.0|0.25|0.25|fair individual splitting measurement
9217|JB37|31.39|35.67|8.0|1.25|217|SKSac|9.0|9.0|0.25|0.25|fair individual splitting measurement
9218|JB37|31.39|35.67|1.0|1.65|217|SKSac|5.0|5.0|0.25|0.25|good individual splitting measurement
9219|JB37|31.39|35.67|3.0|2.05|217|PKSdf|5.0|5.0|0.25|0.25|good individual splitting measurement
9220|JB37|31.39|35.67|8.0|1.05|217|SKKSac|18.0|18.0|0.27|0.27|good individual splitting measurement
9221|JB37|31.39|35.67|0.0|1.8|217|SKSac|7.0|7.0|0.25|0.25|good individual splitting measurement
9222|JB37|31.39|35.67|3.0|1.25|217|SKSac|13.0|13.0|0.25|0.25|good individual splitting measurement
9223|JB39|31.19|35.61|2.0|1.8|217|SKSac|8.0|8.0|0.3|0.3|fair individual splitting measurement
9224|JB39|31.19|35.61|355.0|2.02|217|SKSac|10.0|10.0|0.31|0.31|fair individual splitting measurement
9225|JB39|31.19|35.61|4.0|1.55|217|SKSac|16.0|16.0|0.25|0.25|fair individual splitting measurement
9226|JB39|31.19|35.61|1.0|2.0|217|SKSac|4.0|4.0|0.3|0.3|fair individual splitting measurement
9227|JB39|31.19|35.61|3.0|1.4|217|PKSdf|14.0|14.0|0.25|0.25|fair individual splitting measurement
9228|JB39|31.19|35.61|8.0|1.45|217|SKSac|6.0|6.0|0.2|0.2|fair individual splitting measurement
9229|JB39|31.19|35.61|358.0|2.5|217|SKSac|5.0|5.0|0.25|0.25|good individual splitting measurement
9230|JB39|31.19|35.61|11.0|1.8|217|PKSbc|15.0|15.0|0.3|0.3|good individual splitting measurement
9231|JB39|31.19|35.61|11.0|1.65|217|PKSbc|10.0|10.0|0.29|0.29|good individual splitting measurement
9232|JB39|31.19|35.61|0.0|1.85|217|SKSac|5.0|5.0|0.3|0.3|good individual splitting measurement
9233|JB39|31.19|35.61|4.0|1.55|217|PKSdf|17.0|17.0|0.25|0.25|good individual splitting measurement
9234|JB39|31.19|35.61|357.0|1.55|217|SKSac|14.0|14.0|0.3|0.3|good individual splitting measurement
9235|JB39|31.19|35.61|9.0|1.6|217|SKSac|12.0|12.0|0.25|0.25|good individual splitting measurement
9236|JB41|31.27|35.54|0.0|1.55|217|SKKSac|10.0|10.0|0.25|0.25|good individual splitting measurement
9237|JB41|31.27|35.54|10.0|2.0|217|SKSac|7.0|7.0|0.3|0.3|good individual splitting measurement
9238|JB41|31.27|35.54|1.0|1.95|217|SKSac|3.0|3.0|0.15|0.15|good individual splitting measurement
9239|JB41|31.27|35.54|13.0|1.45|217|SKKSac|7.0|7.0|0.3|0.3|good individual splitting measurement
9240|JB41|31.27|35.54|0.0|2.2|217|SKSac|4.0|4.0|0.25|0.25|good individual splitting measurement
9241|JB42|31.33|35.5|8.0|1.36|217|SKSac|13.0|13.0|0.25|0.25|fair individual splitting measurement
9242|JB42|31.33|35.5|1.0|1.75|217|SKSac|7.0|7.0|0.25|0.25|fair individual splitting measurement
9243|JD02|30.81|35.41|8.0|1.75|217|SKSac|5.0|5.0|0.29|0.29|fair individual splitting measurement
9244|JD02|30.81|35.41|8.0|2.18|217|SKSac|5.0|5.0|0.28|0.28|fair individual splitting measurement
9245|JD06|30.09|35.21|16.0|1.54|217|SKSac|25.0|25.0|0.29|0.29|fair individual splitting measurement
9246|JD08|29.72|35.05|357.0|1.39|217|PKSbc|24.0|24.0|0.28|0.28|fair individual splitting measurement
9247|JD08|29.72|35.05|344.0|0.56|217|SKSac|12.0|12.0|0.26|0.26|fair individual splitting measurement
9248|JER|31.7724|35.1981|1.0|1.72|217|SKSac|5.0|5.0|0.13|0.13|fair individual splitting measurement
9249|JER|31.7724|35.1981|0.0|1.46|217|SKKSac|5.0|5.0|0.18|0.18|fair individual splitting measurement
9250|JER|31.7724|35.1981|5.0|2.16|217|SKSac|2.0|2.0|0.21|0.21|fair individual splitting measurement
9251|JER|31.7724|35.1981|308.0|0.55|217|SKSac|25.0|25.0|0.27|0.27|fair individual splitting measurement
9252|JER|31.7724|35.1981|3.0|1.81|217|PKSab|5.0|5.0|0.11|0.11|fair individual splitting measurement
9253|JER|31.7724|35.1981|350.0|0.85|217|SKSac|14.0|14.0|0.3|0.3|fair individual splitting measurement
9254|JER|31.7724|35.1981|359.0|1.45|217|SKSac|5.0|5.0|0.19|0.19|good individual splitting measurement
9255|JER|31.7724|35.1981|1.0|1.51|217|SKSac|4.0|4.0|0.1|0.1|good individual splitting measurement
9256|JER|31.7724|35.1981|0.0|1.4|217|SKSac|4.0|4.0|0.3|0.3|good individual splitting measurement
9257|JER|31.7724|35.1981|356.0|1.03|217|SKSac|7.0|7.0|0.24|0.24|good individual splitting measurement
9258|JER|31.7724|35.1981|356.0|1.01|217|PKSbc|15.0|15.0|0.22|0.22|good individual splitting measurement
9259|JER|31.7724|35.1981|1.0|1.7|217|PKSbc|5.0|5.0|0.23|0.23|good individual splitting measurement
9260|JK02|30.57|35.56|4.0|1.61|217|SKSac|5.0|5.0|0.3|0.3|fair individual splitting measurement
9261|JK02|30.57|35.56|10.0|1.3|217|SKSac|10.0|10.0|0.26|0.26|fair individual splitting measurement
9262|JK05|30.24|35.48|6.0|1.3|217|SKSac|10.0|10.0|0.28|0.28|fair individual splitting measurement
9263|JS02|30.29|36.24|9.0|1.76|217|SKSac|4.0|4.0|0.3|0.3|fair individual splitting measurement
9264|JS02|30.29|36.24|10.0|1.26|217|SKSac|6.0|6.0|0.25|0.25|good individual splitting measurement
9265|JS05|31.24|35.4|351.0|1.5|217|SKSac|12.0|12.0|0.3|0.3|fair individual splitting measurement
9266|JS05|31.24|35.4|2.0|1.01|217|SKKSac|19.0|19.0|0.28|0.28|fair individual splitting measurement
9267|JS05|29.43|35.81|10.0|2.1|217|SKSac|5.0|5.0|0.25|0.25|fair individual splitting measurement
9268|JS05|31.24|35.4|0.0|1.05|217|PKSab|13.0|13.0|0.27|0.27|good individual splitting measurement
9269|JS05|31.24|35.4|2.0|1.18|217|PKSbc|13.0|13.0|0.27|0.27|good individual splitting measurement
9270|JS05|29.43|35.81|10.0|1.32|217|SKSac|5.0|5.0|0.22|0.22|good individual splitting measurement
9271|JS05|29.43|35.81|351.0|0.54|217|SKSac|25.0|25.0|0.28|0.28|good individual splitting measurement
9272|JS06|31.28|35.47|2.0|1.05|217|PKSbc|5.0|5.0|0.3|0.3|fair individual splitting measurement
9273|JS06|29.53|35.6|8.0|1.58|217|SKSac|4.0|4.0|0.3|0.3|fair individual splitting measurement
9274|JS06|31.28|35.47|359.0|1.15|217|SKSac|12.0|12.0|0.25|0.25|good individual splitting measurement
9275|JS06|31.28|35.47|10.0|1.15|217|PKSbc|19.0|19.0|0.31|0.31|good individual splitting measurement
9276|JS07|29.42|35.39|15.0|1.64|217|SKSac|4.0|4.0|0.25|0.25|fair individual splitting measurement
9277|JS07|29.42|35.39|15.0|1.35|217|PKSbc|5.0|5.0|0.3|0.3|good individual splitting measurement
9278|JS08|31.31|35.49|1.0|1.3|217|SKSac|15.0|15.0|0.25|0.25|fair individual splitting measurement
9279|JS08|31.31|35.49|357.0|1.5|217|SKSac|13.0|13.0|0.25|0.25|good individual splitting measurement
9280|JS08|31.31|35.49|5.0|1.1|217|SKSac|11.0|11.0|0.25|0.25|good individual splitting measurement
9281|JS09|31.32|35.49|22.0|1.3|217|PKSbc|||0.38|0.38|good individual splitting measurement
9282|JS09|31.32|35.49|359.0|1.45|217|SKSac|10.0|10.0|0.25|0.25|good individual splitting measurement
9283|JS09|31.32|35.49|7.0|1.05|217|SKSac|18.0|18.0|0.25|0.25|good individual splitting measurement
9284|JS11|31.35|35.51|15.0|1.2|217|PKSbc|4.0|4.0|0.28|0.28|good individual splitting measurement
9285|JS13|31.23|35.5|16.0|1.35|217|PKSab|16.0|16.0|0.23|0.23|fair individual splitting measurement
9286|JS13|31.23|35.5|11.0|1.35|217|SKKSac|16.0|16.0|0.26|0.26|fair individual splitting measurement
9287|JS13|31.23|35.5|357.0|1.6|217|SKSac|9.0|9.0|0.25|0.25|good individual splitting measurement
9288|JS14|31.24|35.52|0.0|1.74|217|SKKSac|15.0|15.0|0.26|0.26|fair individual splitting measurement
9289|JS14|31.24|35.52|357.0|1.85|217|SKSac|||0.35|0.35|good individual splitting measurement
9290|JS14|31.24|35.52|6.0|1.82|217|PKSbc|19.0|19.0|0.26|0.26|good individual splitting measurement
9291|JS17|31.25|35.6|358.0|1.95|217|SKSac|6.0|6.0|0.25|0.25|good individual splitting measurement
9292|JS20|31.21|35.66|10.0|1.55|217|SKSac|12.0|12.0|0.19|0.19|fair individual splitting measurement
9293|JS20|31.21|35.66|12.0|1.95|217|SKSac|13.0|13.0|0.25|0.25|good individual splitting measurement
9294|JS20|31.21|35.66|4.0|1.8|217|SKSac|18.0|18.0|0.26|0.26|good individual splitting measurement
9295|JS22|31.19|35.69|9.0|1.45|217|SKSac|8.0|8.0|0.2|0.2|fair individual splitting measurement
9296|JS22|31.19|35.69|4.0|1.65|217|SKSac|17.0|17.0|0.25|0.25|fair individual splitting measurement
9297|JS22|31.19|35.69|10.0|1.46|217|SKSac|12.0|12.0|0.31|0.31|fair individual splitting measurement
9298|JS22|31.19|35.69|5.0|1.7|217|SKSac|10.0|10.0|0.25|0.25|good individual splitting measurement
9299|JS22|31.19|35.69|0.0|1.3|217|PKSbc|19.0|19.0|0.3|0.3|good individual splitting measurement
9300|JS22|31.19|35.69|356.0|1.03|217|PKSbc|15.0|15.0|0.28|0.28|good individual splitting measurement
9301|JS23|31.22|35.67|5.0|1.8|217|SKSac|9.0|9.0|0.25|0.25|fair individual splitting measurement
9302|JS23|31.22|35.67|9.0|1.5|217|SKSac|9.0|9.0|0.25|0.25|fair individual splitting measurement
9303|JS24|31.18|35.7|12.0|1.3|217|SKSac|14.0|14.0|0.25|0.25|fair individual splitting measurement
9304|JS24|31.18|35.7|358.0|1.24|217|PKSbc|9.0|9.0|0.2|0.2|good individual splitting measurement
9305|JS26|31.17|35.54|3.0|2.4|217|PKSbc|5.0|5.0|0.25|0.25|fair individual splitting measurement
9306|JS26|31.17|35.54|359.0|1.9|217|SKSac|6.0|6.0|0.3|0.3|good individual splitting measurement
9307|JS26|31.17|35.54|355.0|1.95|217|SKSac|17.0|17.0|0.25|0.25|good individual splitting measurement
9308|JS26|31.17|35.54|6.0|1.68|217|PKSdf|10.0|10.0|0.24|0.24|good individual splitting measurement
9309|JS27|31.19|35.54|3.0|1.7|217|SKSac|8.0|8.0|0.3|0.3|good individual splitting measurement
9310|JS27|31.19|35.54|355.0|1.92|217|SKSac|17.0|17.0|0.25|0.25|good individual splitting measurement
9311|JS28|31.3|35.54|1.0|1.8|217|SKSac|7.0|7.0|0.3|0.3|fair individual splitting measurement
9312|JS28|31.3|35.54|9.0|1.75|217|SKSac|10.0|10.0|0.25|0.25|good individual splitting measurement
9313|JS28|31.3|35.54|358.0|1.85|217|SKKSac|9.0|9.0|0.25|0.25|good individual splitting measurement
9314|JS31|31.33|35.58|1.0|2.1|217|SKSac|7.0|7.0|0.25|0.25|good individual splitting measurement
9315|JS31|31.33|35.58|8.0|1.9|217|PKSbc|10.0|10.0|0.29|0.29|good individual splitting measurement
9316|JS31|31.33|35.58|355.0|2.25|217|SKKSac|10.0|10.0|0.25|0.25|good individual splitting measurement
9317|JS31|31.33|35.58|358.0|2.25|217|SKSac|7.0|7.0|0.25|0.25|good individual splitting measurement
9318|JS31|31.33|35.58|358.0|1.75|217|SKKSac|5.0|5.0|0.25|0.25|good individual splitting measurement
9319|JS33|31.33|35.64|4.0|1.58|217|SKSac|8.0|8.0|0.28|0.28|fair individual splitting measurement
9320|JS33|31.33|35.64|1.0|1.45|217|PKSdf|12.0|12.0|0.3|0.3|fair individual splitting measurement
9321|JS33|31.33|35.64|5.0|1.2|217|PKSbc|8.0|8.0|0.14|0.14|good individual splitting measurement
9322|JS33|31.33|35.64|12.0|1.95|217|SKSac|14.0|14.0|0.25|0.25|good individual splitting measurement
9323|JS33|31.33|35.64|10.0|1.95|217|SKSac|13.0|13.0|0.25|0.25|good individual splitting measurement
9324|JS35|31.38|35.7|1.0|1.8|217|SKSac|15.0|15.0|0.25|0.25|fair individual splitting measurement
9325|JS35|31.38|35.7|9.0|1.8|217|PKSab|18.0|18.0|0.3|0.3|fair individual splitting measurement
9326|JS35|31.38|35.7|3.0|1.4|217|SKKSac|18.0|18.0|0.31|0.31|fair individual splitting measurement
9327|JS35|31.38|35.7|4.0|1.65|217|SKSac|9.0|9.0|0.25|0.25|fair individual splitting measurement
9328|JS35|31.38|35.7|5.0|1.55|217|SKSac|12.0|12.0|0.25|0.25|fair individual splitting measurement
9329|JS35|31.38|35.7|10.0|1.3|217|SKSac|10.0|10.0|0.3|0.3|fair individual splitting measurement
9330|JS35|31.38|35.7|3.0|1.6|217|SKSac|7.0|7.0|0.3|0.3|good individual splitting measurement
9331|JS35|31.38|35.7|5.0|1.95|217|PKSdf|7.0|7.0|0.25|0.25|good individual splitting measurement
9332|JS35|31.38|35.7|9.0|1.47|217|PKSbc|6.0|6.0|0.15|0.15|good individual splitting measurement
9333|JS40|31.12|35.63|1.0|1.6|217|SKKSac|6.0|6.0|0.25|0.25|good individual splitting measurement
9334|JW01|30.87|35.97|4.0|1.3|217|SKSac|5.0|5.0|0.29|0.29|fair individual splitting measurement
9335|JW01|30.87|35.97|6.0|1.65|217|SKSac|5.0|5.0|0.27|0.27|fair individual splitting measurement
9336|JW01|30.87|35.97|10.0|2.12|217|SKSac|5.0|5.0|0.3|0.3|fair individual splitting measurement
9337|JW01|30.87|35.97|347.0|0.44|217|SKSac|4.0|4.0|0.26|0.26|good individual splitting measurement
9338|JW04|30.33|35.77|10.0|1.3|217|SKSac|11.0|11.0|0.3|0.3|fair individual splitting measurement
9339|JW07|30.0|35.5|350.0|0.6|217|SKSac|20.0|20.0|0.3|0.3|fair individual splitting measurement
9340|JW07|30.0|35.5|349.0|0.52|217|SKSac|12.0|12.0|0.27|0.27|good individual splitting measurement
9341|JW09|29.68|35.32|13.0|1.62|217|SKSac|6.0|6.0|0.27|0.27|fair individual splitting measurement
9342|JW3X|30.59|35.77|10.0|1.42|217|SKSac|5.0|5.0|0.24|0.24|good individual splitting measurement
9343|KSDI|33.192|35.659|344.0|0.4|217|SKSac|9.0|9.0|0.25|0.25|fair individual splitting measurement
9344|KSDI|33.192|35.659|8.0|1.71|217|SKKSac|4.0|4.0|0.27|0.27|fair individual splitting measurement
9345|KSDI|33.192|35.659|347.0|0.45|217|SKSac|20.0|20.0|0.2|0.2|fair individual splitting measurement
9346|KSDI|33.192|35.659|340.0|0.45|217|SKSac|14.0|14.0|0.3|0.3|good individual splitting measurement
9347|KSDI|33.192|35.659|6.0|1.41|217|SKSac|4.0|4.0|0.13|0.13|good individual splitting measurement
9348|KSDI|33.192|35.659|3.0|1.32|217|SKKSac|4.0|4.0|0.24|0.24|good individual splitting measurement
9349|KSDI|33.192|35.659|4.0|1.2|217|SKSac|5.0|5.0|0.22|0.22|good individual splitting measurement
9350|KSDI|33.192|35.659|6.0|1.6|217|SKSac|4.0|4.0|0.29|0.29|good individual splitting measurement
9351|KSDI|33.192|35.659|354.0|0.73|217|SKSac|4.0|4.0|0.18|0.18|good individual splitting measurement
9352|KSDI|33.192|35.659|3.0|1.45|217|SKSac|2.0|2.0|0.25|0.25|good individual splitting measurement
9353|KZIT|30.906|34.398|355.0|0.55|217|SKSac|8.0|8.0|0.2|0.2|fair individual splitting measurement
9354|KZIT|30.906|34.398|5.0|1.01|217|SKSac|4.0|4.0|0.29|0.29|fair individual splitting measurement
9355|KZIT|30.906|34.398|6.0|1.21|217|SKSac|12.0|12.0|0.19|0.19|fair individual splitting measurement
9356|KZIT|30.906|34.398|10.0|1.21|217|SKKSac|4.0|4.0|0.17|0.17|good individual splitting measurement
9357|KZIT|30.906|34.398|3.0|1.1|217|SKSac|12.0|12.0|0.28|0.28|good individual splitting measurement
9358|KZIT|30.906|34.398|4.0|1.11|217|SKSac|5.0|5.0|0.24|0.24|good individual splitting measurement
9359|KZIT|30.906|34.398|10.0|1.11|217|SKSac|10.0|10.0|0.16|0.16|good individual splitting measurement
9360|KZIT|30.906|34.398|8.0|1.11|217|SKSac|10.0|10.0|0.19|0.19|good individual splitting measurement
9361|KZIT|30.906|34.398|356.0|0.8|217|SKSac|9.0|9.0|0.21|0.21|good individual splitting measurement
9362|KZIT|30.906|34.398|341.0|0.3|217|SKKSac|20.0|20.0|0.25|0.25|good individual splitting measurement
9363|KZIT|30.906|34.398|3.0|1.2|217|PKSbc|14.0|14.0|0.23|0.23|good individual splitting measurement
9364|MMLI|32.4393|35.4127|352.0|0.45|217|SKSac|5.0|5.0|0.2|0.2|fair individual splitting measurement
9365|MMLI|32.4393|35.4127|6.0|1.49|217|SKSac|4.0|4.0|0.26|0.26|fair individual splitting measurement
9366|MMLI|32.4393|35.4127|3.0|1.85|217|SKSac|2.0|2.0|0.18|0.18|fair individual splitting measurement
9367|MMLI|32.4393|35.4127|344.0|0.55|217|SKSac|4.0|4.0|0.21|0.21|fair individual splitting measurement
9368|MMLI|32.4393|35.4127|8.0|1.86|217|SKSac|5.0|5.0|0.22|0.22|good individual splitting measurement
9369|MMLI|32.4393|35.4127|6.0|1.4|217|SKKSac|5.0|5.0|0.3|0.3|good individual splitting measurement
9370|MMLI|32.4393|35.4127|4.0|1.6|217|SKSac|2.0|2.0|0.27|0.27|good individual splitting measurement
9371|MMLI|32.4393|35.4127|5.0|1.81|217|SKSac|3.0|3.0|0.15|0.15|good individual splitting measurement
9372|MMLI|32.4393|35.4127|5.0|1.35|217|SKSac|5.0|5.0|0.24|0.24|good individual splitting measurement
9373|MMLI|32.4393|35.4127|344.0|0.37|217|SKSac|4.0|4.0|0.2|0.2|good individual splitting measurement
9374|MMLI|32.4393|35.4127|3.0|1.36|217|SKSac|5.0|5.0|0.24|0.24|good individual splitting measurement
9375|MMLI|32.4393|35.4127|357.0|0.65|217|SKSac|5.0|5.0|0.25|0.25|good individual splitting measurement
9376|MMLI|32.4393|35.4127|7.0|1.36|217|SKSac|5.0|5.0|0.3|0.3|good individual splitting measurement
9377|MRNI|33.0118|35.3921|335.0|0.45|217|SKSac|10.0|10.0|0.25|0.25|good individual splitting measurement
11138|SAY|15.35|44.2|31.5|1.09|234||0.3|0.3|0.02|0.02|Stacked result from 23 individual splitting measurements
12900|CSS|34.962|33.331|31.83|1.32|252||9.58|9.58|0.23|0.23| Mean calculated from 26 individual splitting measurements
12901|LEF|35.111|32.843|20.86|0.61|252||8.48|8.48|0.1|0.1| Mean calculated from 16 individual splitting measurements
12902|LFK|35.282|33.533|15.0|1.1|252||8.75|8.75|0.23|0.23| Mean calculated from 10 individual splitting measurements
12903|EREN|35.529|34.174|0.83|1.9|252||4.62|4.62|0.13|0.13|Mean calculated from 9 individual splitting measurements
12904|MERS|36.867|34.522|8.12|0.87|252||7.96|7.96|0.14|0.14| Mean calculated from 28 individual splitting measurements
12905|CEYT|37.01|35.747|21.13|1.05|252||6.72|6.72|0.13|0.13| Mean calculated from 30 individual splitting measurements
12906|IKL|36.236|33.684|20.23|0.9|252||8.58|8.58|0.22|0.22| Mean calculated from 23 individual splitting measurements
12907|TAHT|36.375|36.185|349.34|1.61|252||5.33|5.33|0.13|0.13|Mean calculated from 9 individual splitting measurements
18032|ITM|21.93|37.19|4.0|1.98|291|SKS|5.0|5.0|0.46|0.46|Mean calculated from 2 individual splitting measurements
18849|AFSR_KO|39.45|33.07|21.0|1.15|298|PKS|6.0|6.0|0.2|0.2|individual measurement, outstanding
18850|AFSR_KO|39.45|33.07|19.0|0.7|298|PKS|6.0|6.0|0.13|0.13|individual measurement, outstanding
18851|AFSR_KO|39.45|33.07|42.0|1.05|298|SKS|10.5|10.5|0.2|0.2|individual measurement, outstanding
18852|AFSR_KO|39.45|33.07|8.0|0.9|298|PKS|13.0|13.0|0.28|0.28|individual measurement, good
18853|AFSR_KO|39.45|33.07|39.0|0.85|298|SKS|8.0|8.0|0.17|0.17|individual measurement, outstanding
18854|AFSR_KO|39.45|33.07|36.0|1.25|298|SKK|16.5|16.5|0.55|0.55|individual measurement, good
18855|AFSR_KO|39.45|33.07|40.0|0.65|298|SKK|12.0|12.0|0.15|0.15|individual measurement, good
18856|AFSR_KO|39.45|33.07|37.0|0.6|298|SKS|14.5|14.5|0.15|0.15|individual measurement, outstanding
18857|AFSR_KO|39.45|33.07|42.0|0.7|298|SKS|10.0|10.0|0.12|0.12|individual measurement, outstanding
18858|AFSR_KO|39.45|33.07|17.0|1.05|298|SKS|18.5|18.5|0.47|0.47|individual measurement, good
18859|AFSR_KO|39.45|33.07|42.0|1.1|298|SKS|4.0|4.0|0.12|0.12|individual measurement, outstanding
18860|AFSR_KO|39.45|33.07|33.0|1.5|298|SKS|5.0|5.0|0.23|0.23|individual measurement, outstanding
18861|AFSR_KO|39.45|33.07|45.0|1.05|298|SKK|10.5|10.5|0.23|0.23|individual measurement, outstanding
18862|AFSR_KO|39.45|33.07|20.0|0.75|298|SKS|12.0|12.0|0.18|0.18|individual measurement, outstanding
18863|AFSR_KO|39.45|33.07|25.0|0.8|298|PKS|6.5|6.5|0.1|0.1|individual measurement, good
18864|AFSR_KO|39.45|33.07|30.0|0.8|298|PKS|8.5|8.5|0.15|0.15|individual measurement, good
18865|AFSR_KO|39.45|33.07|40.0|1.1|298|PKS|10.5|10.5|0.23|0.23|individual measurement, outstanding
18866|AFSR_KO|39.45|33.07|56.0|1.25|298|SKK|4.5|4.5|0.18|0.18|individual measurement, outstanding
18867|AFSR_KO|39.45|33.07|56.0|1.25|298|SKS|7.5|7.5|0.28|0.28|individual measurement, outstanding
18868|AFSR_KO|39.45|33.07|29.0|0.85|298|SKK|12.5|12.5|0.25|0.25|individual measurement, good
18869|AFSR_KO|39.45|33.07|35.0|0.85|298|PKS|15.0|15.0|0.4|0.4|individual measurement, good
18870|AFSR_KO|39.45|33.07|29.0|0.75|298|PKS|10.0|10.0|0.12|0.12|individual measurement, outstanding
18871|AFSR_KO|39.45|33.07|49.0|1.25|298|SKS|5.0|5.0|0.18|0.18|individual measurement, good
18872|AFSR_KO|39.45|33.07|37.0|0.65|298|SKS|11.0|11.0|0.15|0.15|individual measurement, outstanding
18873|AFSR_KO|39.45|33.07|18.0|0.85|298|PKS|9.0|9.0|0.17|0.17|individual measurement, good
18874|AFSR_KO|39.45|33.07|47.0|1.0|298|SKS|7.5|7.5|0.15|0.15|individual measurement, outstanding
18875|AFSR_KO|39.45|33.07|29.0|0.7|298|PKS|17.0|17.0|0.33|0.33|individual measurement, good
18876|AFSR_KO|39.45|33.07|48.0|1.05|298|SKS|7.5|7.5|0.22|0.22|individual measurement, good
18877|AFSR_KO|39.45|33.07|42.0|1.0|298|SKS|5.5|5.5|0.15|0.15|individual measurement, good
18878|AFSR_KO|39.45|33.07|42.0|1.1|298|SKK|9.5|9.5|0.18|0.18|individual measurement, outstanding
18879|AFSR_KO|39.45|33.07|33.0|0.85|298|PKS|13.5|13.5|0.25|0.25|individual measurement, outstanding
18880|AFSR_KO|39.45|33.07|31.0|0.85|298|PKS|8.5|8.5|0.15|0.15|individual measurement, good
18881|AFSR_KO|39.45|33.07|17.0|1.05|298|PKS|4.5|4.5|0.13|0.13|individual measurement, outstanding
18882|AFSR_KO|39.45|33.07|47.0|0.85|298|SKS|10.5|10.5|0.2|0.2|individual measurement, good
18883|AFSR_KO|39.45|33.07|14.0|1.2|298|SKS|7.0|7.0|0.25|0.25|individual measurement, outstanding
18884|AFSR_KO|39.45|33.07|10.0|0.7|298|SKK|13.0|13.0|0.2|0.2|individual measurement, good
18885|AFSR_KO|39.45|33.07|8.0|1.0|298|PKS|9.0|9.0|0.25|0.25|individual measurement, outstanding
18886|AFSR_KO|39.45|33.07|46.0|0.65|298|SKK|13.0|13.0|0.2|0.2|individual measurement, good
18887|AFSR_KO|39.45|33.07|16.0|0.8|298|SKS|12.0|12.0|0.23|0.23|individual measurement, outstanding
18888|AFSR_KO|39.45|33.07|25.0|1.15|298|SKS|10.5|10.5|0.28|0.28|individual measurement, good
18889|AFSR_KO|39.45|33.07|47.0|0.85|298|SKS|9.5|9.5|0.15|0.15|individual measurement, outstanding
18890|AFSR_KO|39.45|33.07|43.0|1.15|298|SKS|4.0|4.0|0.15|0.15|individual measurement, good
18891|AFSR_KO|39.45|33.07|43.0|1.15|298|SKS|5.5|5.5|0.18|0.18|individual measurement, good
18892|AFSR_KO|39.45|33.07|55.0|1.3|298|SKS|4.0|4.0|0.17|0.17|individual measurement, good
18893|AFSR_KO|39.45|33.07|23.0|0.65|298|PKS|5.0|5.0|0.08|0.08|individual measurement, outstanding
18894|AFSR_KO|39.45|33.07|31.0|0.85|298|SKS|13.5|13.5|0.25|0.25|individual measurement, good
18895|AFSR_KO|39.45|33.07|21.0|0.85|298|PKS|8.5|8.5|0.2|0.2|individual measurement, outstanding
18896|AFSR_KO|39.45|33.07|47.0|0.95|298|SKS|9.5|9.5|0.2|0.2|individual measurement, outstanding
18897|AFSR_KO|39.45|33.07|44.0|0.8|298|SKS|7.0|7.0|0.15|0.15|individual measurement, good
18898|AFSR_KO|39.45|33.07|24.0|0.8|298|PKS|12.5|12.5|0.17|0.17|individual measurement, outstanding
18899|AGIN_XG|38.94|38.71|23.0|1.25|298|SKK|7.0|7.0|0.23|0.23|individual measurement, good
18900|AGIN_XG|38.94|38.71|35.0|0.9|298|SKS|6.5|6.5|0.15|0.15|individual measurement, outstanding
18901|AGIN_XG|38.94|38.71|24.0|1.15|298|SKS|7.0|7.0|0.18|0.18|individual measurement, good
18902|AGIN_XG|38.94|38.71|32.0|0.9|298|SKS|9.5|9.5|0.22|0.22|individual measurement, good
18903|AGIN_XG|38.94|38.71|33.0|1.0|298|SKS|13.0|13.0|0.3|0.3|individual measurement, good
18904|AGIN_XG|38.94|38.71|31.0|1.0|298|SKS|4.5|4.5|0.18|0.18|individual measurement, outstanding
18905|AGIN_XG|38.94|38.71|19.0|1.15|298|PKS|5.5|5.5|0.2|0.2|individual measurement, good
18906|AGIN_XG|38.94|38.71|29.0|0.85|298|SKS|9.0|9.0|0.2|0.2|individual measurement, good
18907|AGIN_XG|38.94|38.71|24.0|1.3|298|SKS|7.0|7.0|0.32|0.32|individual measurement, good
18908|AGIN_XG|38.94|38.71|19.0|0.85|298|SKS|8.0|8.0|0.12|0.12|individual measurement, good
18909|AGIN_XG|38.94|38.71|36.0|1.0|298|SKS|10.5|10.5|0.23|0.23|individual measurement, good
18910|AGIN_XG|38.94|38.71|55.0|0.95|298|SKS|14.5|14.5|0.2|0.2|individual measurement, good
18911|AGIN_XG|38.94|38.71|33.0|0.95|298|SKS|10.5|10.5|0.2|0.2|individual measurement, good
18912|AGIN_XG|38.94|38.71|42.0|0.95|298|SKS|12.5|12.5|0.23|0.23|individual measurement, good
18913|AGIN_XG|38.94|38.71|33.0|1.15|298|SKS|11.5|11.5|0.4|0.4|individual measurement, good
18914|AGIN_XG|38.94|38.71|27.0|1.15|298|SKS|4.5|4.5|0.25|0.25|individual measurement, good
18915|AGIN_XG|38.94|38.71|27.0|1.35|298|SKS|1.5|1.5|0.12|0.12|individual measurement, good
18916|AGIN_XG|38.94|38.71|49.0|0.75|298|SKS|13.5|13.5|0.25|0.25|individual measurement, good
18917|AGIN_XG|38.94|38.71|20.0|0.75|298|SKK|15.5|15.5|0.25|0.25|individual measurement, good
18918|AGIN_XG|38.94|38.71|28.0|0.85|298|SKK|6.0|6.0|0.12|0.12|individual measurement, good
18919|AGIN_XG|38.94|38.71|23.0|0.95|298|SKS|12.0|12.0|0.2|0.2|individual measurement, good
18920|AGIN_XG|38.94|38.71|34.0|1.0|298|SKS|10.0|10.0|0.28|0.28|individual measurement, good
18921|AGIN_XG|38.94|38.71|34.0|1.0|298|SKS|14.5|14.5|0.38|0.38|individual measurement, good
18922|AGIN_XG|38.94|38.71|29.0|1.1|298|SKS|3.5|3.5|0.22|0.22|individual measurement, good
18923|AGIN_XG|38.94|38.71|17.0|0.75|298|SKS|16.5|16.5|0.33|0.33|individual measurement, good
18924|AGIN_XG|38.94|38.71|358.0|1.2|298|SKK|8.0|8.0|0.23|0.23|individual measurement, good
18925|AGIN_XG|38.94|38.71|10.0|0.95|298|SKK|11.5|11.5|0.33|0.33|individual measurement, good
18926|AGIN_XG|38.94|38.71|34.0|1.2|298|SKS|6.0|6.0|0.22|0.22|individual measurement, good
18927|AGIN_XG|38.94|38.71|35.0|0.95|298|SKK|5.5|5.5|0.12|0.12|individual measurement, outstanding
18928|AGIN_XG|38.94|38.71|12.0|1.15|298|SKS|6.0|6.0|0.25|0.25|individual measurement, good
18929|AGIN_XG|38.94|38.71|12.0|1.0|298|SKS|4.0|4.0|0.18|0.18|individual measurement, outstanding
18930|AGIN_XG|38.94|38.71|19.0|0.7|298|SKS|12.5|12.5|0.15|0.15|individual measurement, good
18931|AGIN_XG|38.94|38.71|18.0|1.35|298|SKS|12.0|12.0|0.45|0.45|individual measurement, good
18932|AGIN_XG|38.94|38.71|33.0|0.8|298|SKK|10.5|10.5|0.15|0.15|individual measurement, good
18933|AGIN_XG|38.94|38.71|42.0|1.15|298|SKS|7.5|7.5|0.17|0.17|individual measurement, good
18934|AGIN_XG|38.94|38.71|20.0|1.25|298|SKS|3.5|3.5|0.15|0.15|individual measurement, outstanding
18935|AGIN_XG|38.94|38.71|21.0|1.15|298|SKS|7.0|7.0|0.25|0.25|individual measurement, good
18936|AGIN_XG|38.94|38.71|36.0|0.85|298|SKS|7.0|7.0|0.15|0.15|individual measurement, outstanding
18937|AGIN_XG|38.94|38.71|29.0|0.95|298|SKS|8.5|8.5|0.2|0.2|individual measurement, good
18938|AGIN_XG|38.94|38.71|41.0|1.1|298|SKS|9.0|9.0|0.28|0.28|individual measurement, good
18939|AGRB_KO|39.58|42.99|81.0|1.2|298|SKK|10.0|10.0|0.2|0.2|individual measurement, good
18940|AGRB_KO|39.58|42.99|55.0|0.8|298|SKS|17.0|17.0|0.3|0.3|individual measurement, good
18941|AGRB_KO|39.58|42.99|62.0|1.3|298|SKK|2.5|2.5|0.13|0.13|individual measurement, outstanding
18942|AGRB_KO|39.58|42.99|80.0|1.45|298|SKS|7.5|7.5|0.45|0.45|individual measurement, good
18943|AGRB_KO|39.58|42.99|275.0|1.65|298|SKS|2.0|2.0|0.23|0.23|individual measurement, outstanding
18944|AGRB_KO|39.58|42.99|86.0|1.45|298|SKS|2.5|2.5|0.2|0.2|individual measurement, outstanding
18945|AGRB_KO|39.58|42.99|81.0|1.25|298|SKS|4.5|4.5|0.25|0.25|individual measurement, good
18946|AGRB_KO|39.58|42.99|85.0|1.4|298|SKS|2.5|2.5|0.23|0.23|individual measurement, outstanding
18947|AGRB_KO|39.58|42.99|36.0|1.55|298|PKS|9.5|9.5|0.43|0.43|individual measurement, outstanding
18948|AGRB_KO|39.58|42.99|80.0|0.8|298|SKS|10.0|10.0|0.23|0.23|individual measurement, outstanding
18949|AGRB_KO|39.58|42.99|82.0|1.2|298|SKS|3.0|3.0|0.22|0.22|individual measurement, good
18950|AGRB_KO|39.58|42.99|273.0|1.9|298|SKS|1.5|1.5|0.12|0.12|individual measurement, outstanding
18951|AGRB_KO|39.58|42.99|59.0|0.8|298|SKS|11.5|11.5|0.25|0.25|individual measurement, outstanding
18952|AGRB_KO|39.58|42.99|82.0|1.5|298|SKS|4.0|4.0|0.33|0.33|individual measurement, outstanding
18953|AGRB_KO|39.58|42.99|81.0|1.5|298|SKK|7.0|7.0|0.48|0.48|individual measurement, good
18954|AGRB_KO|39.58|42.99|87.0|1.45|298|SKS|3.0|3.0|0.3|0.3|individual measurement, good
18955|AGRB_KO|39.58|42.99|80.0|1.45|298|SKS|5.5|5.5|0.38|0.38|individual measurement, good
18956|AGRB_KO|39.58|42.99|51.0|0.9|298|SKS|5.0|5.0|0.12|0.12|individual measurement, outstanding
18957|AGRB_KO|39.58|42.99|48.0|1.35|298|PKS|9.5|9.5|0.4|0.4|individual measurement, good
18958|AGRB_KO|39.58|42.99|47.0|1.5|298|PKS|6.0|6.0|0.28|0.28|individual measurement, good
18959|AGRB_KO|39.58|42.99|5.0|0.85|298|SKK|9.5|9.5|0.2|0.2|individual measurement, good
18960|AGRB_KO|39.58|42.99|61.0|0.95|298|SKS|11.5|11.5|0.3|0.3|individual measurement, good
18961|AGRB_KO|39.58|42.99|60.0|1.7|298|PKS|4.0|4.0|0.42|0.42|individual measurement, good
18962|AGRB_KO|39.58|42.99|47.0|0.85|298|SKK|12.0|12.0|0.25|0.25|individual measurement, good
18963|AGRB_KO|39.58|42.99|47.0|1.3|298|PKS|8.0|8.0|0.32|0.32|individual measurement, good
18964|AGRB_KO|39.58|42.99|75.0|1.1|298|SKK|6.0|6.0|0.2|0.2|individual measurement, outstanding
18965|AGRB_KO|39.58|42.99|57.0|1.1|298|SKS|5.5|5.5|0.18|0.18|individual measurement, good
18966|AGRB_KO|39.58|42.99|274.0|1.65|298|SKS|2.0|2.0|0.2|0.2|individual measurement, outstanding
18967|AGRB_KO|39.58|42.99|50.0|1.3|298|PKS|4.0|4.0|0.22|0.22|individual measurement, outstanding
18968|AGRB_KO|39.58|42.99|56.0|1.55|298|PKS|2.5|2.5|0.18|0.18|individual measurement, good
18969|AGRB_KO|39.58|42.99|81.0|1.4|298|SKS|3.0|3.0|0.2|0.2|individual measurement, good
18970|AGRB_KO|39.58|42.99|37.0|0.75|298|SKK|17.5|17.5|0.38|0.38|individual measurement, good
18971|AGRB_KO|39.58|42.99|53.0|1.4|298|PKS|9.5|9.5|0.43|0.43|individual measurement, good
18972|AGRB_KO|39.58|42.99|31.0|2.5|298|SKS|3.5|3.5|0.42|0.42|individual measurement, good
18973|AGRB_KO|39.58|42.99|77.0|1.05|298|SKS|6.0|6.0|0.18|0.18|individual measurement, good
18974|AGRB_KO|39.58|42.99|84.0|1.0|298|SKS|5.5|5.5|0.23|0.23|individual measurement, outstanding
18975|AGRB_KO|39.58|42.99|59.0|1.4|298|SKS|5.5|5.5|0.38|0.38|individual measurement, outstanding
18976|AGRB_KO|39.58|42.99|63.0|1.65|298|SKS|2.5|2.5|0.25|0.25|individual measurement, outstanding
18977|AGRB_KO|39.58|42.99|82.0|1.7|298|SKS|2.5|2.5|0.4|0.4|individual measurement, good
18978|AGRB_KO|39.58|42.99|78.0|0.85|298|SKS|9.0|9.0|0.2|0.2|individual measurement, outstanding
18979|AHLT_XG|38.75|42.48|61.0|1.15|298|SKS|12.5|12.5|0.35|0.35|individual measurement, outstanding
18980|AHLT_XG|38.75|42.48|51.0|1.85|298|SKS|7.0|7.0|0.35|0.35|individual measurement, good
18981|AHLT_XG|38.75|42.48|33.0|1.1|298|SKS|17.0|17.0|0.57|0.57|individual measurement, good
18982|AHLT_XG|38.75|42.48|44.0|1.9|298|SKK|9.5|9.5|0.53|0.53|individual measurement, good
18983|AHLT_XG|38.75|42.48|44.0|1.15|298|SKS|9.5|9.5|0.22|0.22|individual measurement, good
18984|AHLT_XG|38.75|42.48|68.0|1.85|298|SKS|7.0|7.0|0.45|0.45|individual measurement, good
18985|AKDM_KO|38.33|42.98|62.0|0.6|298|SKS|13.0|13.0|0.2|0.2|individual measurement, outstanding
18986|AKDM_KO|38.33|42.98|62.0|0.95|298|SKK|11.5|11.5|0.43|0.43|individual measurement, good
18987|AKDM_KO|38.33|42.98|75.0|0.7|298|SKS|8.5|8.5|0.2|0.2|individual measurement, outstanding
18988|AKKU_KO|36.16|33.55|3.0|1.2|298|SKK|13.5|13.5|0.5|0.5|individual measurement, good
18989|ALIC_YL|40.98|33.49|42.0|1.35|298|SKS|3.0|3.0|0.1|0.1|individual measurement, good
18990|ALIC_YL|40.98|33.49|46.0|1.85|298|SKK|14.5|14.5|0.7|0.7|individual measurement, good
18991|ALIC_YL|40.98|33.49|67.0|1.05|298|SKK|6.5|6.5|0.27|0.27|individual measurement, good
18992|ALIC_YL|40.98|33.49|73.0|1.55|298|SKK|6.0|6.0|0.25|0.25|individual measurement, good
18993|ALIC_YL|40.98|33.49|52.0|1.75|298|SKS|5.0|5.0|0.45|0.45|individual measurement, good
18994|ALIC_YL|40.98|33.49|47.0|1.05|298|SKS|5.0|5.0|0.1|0.1|individual measurement, good
18995|ALIC_YL|40.98|33.49|37.0|1.1|298|SKS|10.5|10.5|0.28|0.28|individual measurement, good
18996|ALIC_YL|40.98|33.49|45.0|1.35|298|SKK|9.0|9.0|0.32|0.32|individual measurement, good
18997|ALIC_YL|40.98|33.49|61.0|1.9|298|SKS|10.0|10.0|0.47|0.47|individual measurement, good
18998|ALIC_YL|40.98|33.49|32.0|1.4|298|PKS|7.0|7.0|0.25|0.25|individual measurement, good
18999|ALIC_YL|40.98|33.49|45.0|1.35|298|SKK|4.5|4.5|0.2|0.2|individual measurement, good
19000|ALIC_YL|40.98|33.49|47.0|1.6|298|SKS|4.5|4.5|0.23|0.23|individual measurement, good
19001|ALIC_YL|40.98|33.49|50.0|1.65|298|SKK|17.0|17.0|0.83|0.83|individual measurement, good
19002|ALIC_YL|40.98|33.49|30.0|1.5|298|SKS|5.5|5.5|0.22|0.22|individual measurement, good
19003|ALIC_YL|40.98|33.49|54.0|1.35|298|SKK|12.5|12.5|0.45|0.45|individual measurement, good
19004|ALIC_YL|40.98|33.49|40.0|1.65|298|SKS|4.0|4.0|0.15|0.15|individual measurement, good
19005|ALIC_YL|40.98|33.49|47.0|1.15|298|SKK|10.5|10.5|0.25|0.25|individual measurement, good
19006|ALIC_YL|40.98|33.49|46.0|1.4|298|SKS|11.0|11.0|0.33|0.33|individual measurement, good
19007|ALIC_YL|40.98|33.49|71.0|1.55|298|SKS|8.5|8.5|0.3|0.3|individual measurement, good
19008|ALIC_YL|40.98|33.49|59.0|1.7|298|SKK|7.5|7.5|0.4|0.4|individual measurement, good
19009|ALIC_YL|40.98|33.49|64.0|1.65|298|SKS|9.0|9.0|0.53|0.53|individual measurement, good
19010|ALIC_YL|40.98|33.49|46.0|1.25|298|SKS|12.0|12.0|0.3|0.3|individual measurement, good
19011|ALIC_YL|40.98|33.49|37.0|1.35|298|PKS|9.0|9.0|0.25|0.25|individual measurement, good
19012|ALIC_YL|40.98|33.49|46.0|0.95|298|SKS|15.0|15.0|0.3|0.3|individual measurement, good
19013|ALIC_YL|40.98|33.49|65.0|1.15|298|SKK|8.0|8.0|0.2|0.2|individual measurement, good
19014|ALIC_YL|40.98|33.49|63.0|1.15|298|SKS|10.5|10.5|0.3|0.3|individual measurement, good
19015|ALIC_YL|40.98|33.49|40.0|2.2|298|PKS|3.0|3.0|0.23|0.23|individual measurement, good
19016|ALIC_YL|40.98|33.49|55.0|1.45|298|SKS|7.5|7.5|0.32|0.32|individual measurement, good
19017|ALIC_YL|40.98|33.49|46.0|1.65|298|PKS|5.0|5.0|0.27|0.27|individual measurement, good
19018|ALIC_YL|40.98|33.49|38.0|1.55|298|SKS|12.0|12.0|0.45|0.45|individual measurement, good
19019|ALIC_YL|40.98|33.49|53.0|1.45|298|SKS|6.5|6.5|0.22|0.22|individual measurement, good
19020|ALIC_YL|40.98|33.49|50.0|1.4|298|SKK|3.5|3.5|0.2|0.2|individual measurement, good
19021|ALIC_YL|40.98|33.49|50.0|1.4|298|SKK|3.0|3.0|0.15|0.15|individual measurement, outstanding
19022|ALIC_YL|40.98|33.49|56.0|1.9|298|PKS|6.5|6.5|0.55|0.55|individual measurement, good
19023|ALIC_YL|40.98|33.49|31.0|1.3|298|PKS|7.0|7.0|0.22|0.22|individual measurement, good
19024|ALIC_YL|40.98|33.49|26.0|1.4|298|PKS|8.5|8.5|0.27|0.27|individual measurement, good
